[
  {
    "code": "221affe7",
    "name": "JR淡路",
    "lat": 34.740694,
    "lon": 135.519861,
    "lines": [
      "おおさか東線"
    ]
  },
  {
    "code": "6bed9ef5",
    "name": "JR総持寺",
    "lat": 34.828611,
    "lon": 135.577778,
    "lines": [
      "JR京都線"
    ]
  },
  {
    "code": "5620a9c9",
    "name": "JR野江",
    "lat": 34.706944,
    "lon": 135.541389,
    "lines": [
      "おおさか東線"
    ]
  },
  {
    "code": "4bc77abf",
    "name": "Jヴィレッジ",
    "lat": 37.242583,
    "lon": 141.0075,
    "lines": [
      "JR常磐線(いわき～仙台)"
    ]
  },
  {
    "code": "d1d4824a",
    "name": "あいの里公園",
    "lat": 43.161206,
    "lon": 141.413276,
    "lines": [
      "JR札沼線"
    ]
  },
  {
    "code": "d838c8be",
    "name": "あいの里教育大",
    "lat": 43.15528,
    "lon": 141.39842,
    "lines": [
      "JR札沼線"
    ]
  },
  {
    "code": "1db3a80c",
    "name": "あおば通",
    "lat": 38.260749,
    "lon": 140.878514,
    "lines": [
      "JR仙石線"
    ]
  },
  {
    "code": "4048acbb",
    "name": "あかおか",
    "lat": 33.539893,
    "lon": 133.721859,
    "lines": [
      "ごめん・なはり線"
    ]
  },
  {
    "code": "ca9ef315",
    "name": "あかぢ",
    "lat": 33.727366,
    "lon": 130.72455,
    "lines": [
      "伊田線"
    ]
  },
  {
    "code": "c6c7e7a5",
    "name": "あきた白神",
    "lat": 40.386583,
    "lon": 139.987793,
    "lines": [
      "JR五能線"
    ]
  },
  {
    "code": "c4b3ff43",
    "name": "あき亀山",
    "lat": 34.517264,
    "lon": 132.4959,
    "lines": [
      "JR可部線"
    ]
  },
  {
    "code": "677b87eb",
    "name": "あき総合病院前",
    "lat": 33.504389,
    "lon": 133.897694,
    "lines": [
      "ごめん・なはり線"
    ]
  },
  {
    "code": "c731a940",
    "name": "あさぎり",
    "lat": 32.236191,
    "lon": 130.893783,
    "lines": [
      "湯前線"
    ]
  },
  {
    "code": "572bfbe2",
    "name": "あざみ野",
    "lat": 35.5683605,
    "lon": 139.553578,
    "lines": [
      "ブルーライン",
      "東急田園都市線"
    ]
  },
  {
    "code": "1518d683",
    "name": "あしかがフラワーパーク",
    "lat": 36.315167,
    "lon": 139.518611,
    "lines": [
      "JR両毛線"
    ]
  },
  {
    "code": "75269d87",
    "name": "あすなろう四日市",
    "lat": 34.966495,
    "lon": 136.618352,
    "lines": [
      "八王子線",
      "内部線"
    ]
  },
  {
    "code": "27cbbe7c",
    "name": "あつみ温泉",
    "lat": 38.624217,
    "lon": 139.587955,
    "lines": [
      "JR羽越本線"
    ]
  },
  {
    "code": "42b463f6",
    "name": "あびこ",
    "lat": 34.598821,
    "lon": 135.512747,
    "lines": [
      "大阪メトロ御堂筋線"
    ]
  },
  {
    "code": "66e57370",
    "name": "あぶくま",
    "lat": 37.913443,
    "lon": 140.68576,
    "lines": [
      "阿武隈急行線"
    ]
  },
  {
    "code": "d236c2c6",
    "name": "あまや",
    "lat": 37.416736,
    "lon": 139.917661,
    "lines": [
      "会津鉄道会津線"
    ]
  },
  {
    "code": "0faa15a2",
    "name": "あやめ公園",
    "lat": 38.113971,
    "lon": 140.032749,
    "lines": [
      "フラワー長井線"
    ]
  },
  {
    "code": "d357ad7d",
    "name": "あわくら温泉",
    "lat": 35.188901,
    "lon": 134.337011,
    "lines": [
      "智頭急行智頭線"
    ]
  },
  {
    "code": "8a20b6a2",
    "name": "あわら湯のまち",
    "lat": 36.223159,
    "lon": 136.193695,
    "lines": [
      "えちぜん鉄道三国芦原線"
    ]
  },
  {
    "code": "2a6fad92",
    "name": "いこいの広場",
    "lat": 34.788103,
    "lon": 137.963773,
    "lines": [
      "天竜浜名湖線"
    ]
  },
  {
    "code": "cf2e0847",
    "name": "いこいの村",
    "lat": 32.93659,
    "lon": 131.094666,
    "lines": [
      "阿蘇高原線"
    ]
  },
  {
    "code": "fb5b69dc",
    "name": "いずえ",
    "lat": 34.587934,
    "lon": 133.450677,
    "lines": [
      "井原線"
    ]
  },
  {
    "code": "4b160405",
    "name": "いずみ中央",
    "lat": 35.415385,
    "lon": 139.48727,
    "lines": [
      "相鉄いずみ野線"
    ]
  },
  {
    "code": "1b3624af",
    "name": "いずみ野",
    "lat": 35.429434,
    "lon": 139.495135,
    "lines": [
      "相鉄いずみ野線"
    ]
  },
  {
    "code": "740fc993",
    "name": "いづろ通",
    "lat": 31.591824,
    "lon": 130.557672,
    "lines": [
      "鹿児島市電１系統",
      "鹿児島市電２系統"
    ]
  },
  {
    "code": "795287e5",
    "name": "いのつき",
    "lat": 33.282623,
    "lon": 129.667286,
    "lines": [
      "西九州線(伊万里～佐世保)"
    ]
  },
  {
    "code": "e9d1bbe1",
    "name": "いよ立花",
    "lat": 33.827784,
    "lon": 132.772944,
    "lines": [
      "伊予鉄道横河原線"
    ]
  },
  {
    "code": "79abd31b",
    "name": "いりなか",
    "lat": 35.143234,
    "lon": 136.955375,
    "lines": [
      "名古屋市営地下鉄鶴舞線"
    ]
  },
  {
    "code": "0895664e",
    "name": "いわき",
    "lat": 37.058241,
    "lon": 140.892273,
    "lines": [
      "JR常磐線(いわき～仙台)",
      "JR常磐線(取手～いわき)",
      "ゆうゆうあぶくまライン"
    ]
  },
  {
    "code": "afb4b558",
    "name": "いわて沼宮内",
    "lat": 39.960155,
    "lon": 141.216955,
    "lines": [
      "いわて銀河鉄道線"
    ]
  },
  {
    "code": "2735ff53",
    "name": "うきは",
    "lat": 33.33506,
    "lon": 130.789107,
    "lines": [
      "ゆふ高原線"
    ]
  },
  {
    "code": "1020fd95",
    "name": "うらがわら",
    "lat": 37.159285,
    "lon": 138.419047,
    "lines": [
      "北越急行ほくほく線"
    ]
  },
  {
    "code": "7ee986ee",
    "name": "えちご押上ひすい海岸",
    "lat": 37.0482,
    "lon": 137.8784,
    "lines": [
      "日本海ひすいライン"
    ]
  },
  {
    "code": "d8b2b0ef",
    "name": "えびの",
    "lat": 32.042242,
    "lon": 130.81621,
    "lines": [
      "えびの高原線"
    ]
  },
  {
    "code": "5744807a",
    "name": "えびの上江",
    "lat": 32.035519,
    "lon": 130.850133,
    "lines": [
      "えびの高原線"
    ]
  },
  {
    "code": "52e725e7",
    "name": "えびの飯野",
    "lat": 32.030295,
    "lon": 130.871178,
    "lines": [
      "えびの高原線"
    ]
  },
  {
    "code": "4c75805d",
    "name": "おかどめ幸福",
    "lat": 32.231011,
    "lon": 130.873629,
    "lines": [
      "湯前線"
    ]
  },
  {
    "code": "879219fc",
    "name": "おごと温泉",
    "lat": 35.097425,
    "lon": 135.895046,
    "lines": [
      "JR湖西線"
    ]
  },
  {
    "code": "58463d35",
    "name": "おもちゃのまち",
    "lat": 36.466774,
    "lon": 139.829506,
    "lines": [
      "東武宇都宮線"
    ]
  },
  {
    "code": "ce1866ed",
    "name": "おもろまち",
    "lat": 26.222701,
    "lon": 127.698391,
    "lines": [
      "ゆいレール"
    ]
  },
  {
    "code": "5c507829",
    "name": "おゆみ野",
    "lat": 35.550029,
    "lon": 140.166264,
    "lines": [
      "京成千原線"
    ]
  },
  {
    "code": "011fa29b",
    "name": "おりはた",
    "lat": 38.066359,
    "lon": 140.12239,
    "lines": [
      "フラワー長井線"
    ]
  },
  {
    "code": "58b07e34",
    "name": "お台場海浜公園",
    "lat": 35.629813,
    "lon": 139.778607,
    "lines": [
      "ゆりかもめ"
    ]
  },
  {
    "code": "2e1b2349",
    "name": "お花茶屋",
    "lat": 35.747585,
    "lon": 139.83988,
    "lines": [
      "京成本線"
    ]
  },
  {
    "code": "afd81b23",
    "name": "かしの森公園前",
    "lat": 36.5724446134,
    "lon": 140.0146307343,
    "lines": [
      "芳賀・宇都宮LRT"
    ]
  },
  {
    "code": "9704c7c8",
    "name": "かしわ台",
    "lat": 35.466744,
    "lon": 139.415851,
    "lines": [
      "相鉄・JR直通線",
      "相鉄本線"
    ]
  },
  {
    "code": "2c385d6a",
    "name": "かぶと山",
    "lat": 35.60685,
    "lon": 134.919769,
    "lines": [
      "宮豊線"
    ]
  },
  {
    "code": "f1adbe9e",
    "name": "かみのやま温泉",
    "lat": 38.152259,
    "lon": 140.27867,
    "lines": [
      "山形線"
    ]
  },
  {
    "code": "e369defc",
    "name": "かるが浜",
    "lat": 34.263885,
    "lon": 132.517523,
    "lines": [
      "JR呉線"
    ]
  },
  {
    "code": "ed64e96a",
    "name": "きりはまビーチ",
    "lat": 35.658743,
    "lon": 134.74504,
    "lines": [
      "JR山陰本線(豊岡～米子)"
    ]
  },
  {
    "code": "d354b989",
    "name": "くいな橋",
    "lat": 34.962674,
    "lon": 135.757441,
    "lines": [
      "京都市営地下鉄烏丸線"
    ]
  },
  {
    "code": "a103169e",
    "name": "くぬぎ山",
    "lat": 35.782343,
    "lon": 139.975707,
    "lines": [
      "京成松戸線"
    ]
  },
  {
    "code": "3950a258",
    "name": "くびき",
    "lat": 37.198168,
    "lon": 138.361689,
    "lines": [
      "北越急行ほくほく線"
    ]
  },
  {
    "code": "0341562e",
    "name": "けやき台",
    "lat": 33.434537,
    "lon": 130.533392,
    "lines": [
      "JR鹿児島本線(博多～八代)"
    ]
  },
  {
    "code": "c4eccec9",
    "name": "こどもの国",
    "lat": 35.173413,
    "lon": 138.324689,
    "lines": [
      "名鉄蒲郡線",
      "東急こどもの国線"
    ]
  },
  {
    "code": "7b8aed0c",
    "name": "さいたま新都心",
    "lat": 35.893867,
    "lon": 139.633587,
    "lines": [
      "JR京浜東北線",
      "JR高崎線",
      "宇都宮線"
    ]
  },
  {
    "code": "b4b4fddc",
    "name": "さがみ野",
    "lat": 35.471485,
    "lon": 139.429055,
    "lines": [
      "相鉄・JR直通線",
      "相鉄本線"
    ]
  },
  {
    "code": "a4ba5eb6",
    "name": "さぎの宮",
    "lat": 34.757275,
    "lon": 137.757327,
    "lines": [
      "遠州鉄道鉄道線"
    ]
  },
  {
    "code": "b6a781a5",
    "name": "さくらんぼ東根",
    "lat": 38.42806,
    "lon": 140.380677,
    "lines": [
      "山形線"
    ]
  },
  {
    "code": "841faca9",
    "name": "さくら夙川",
    "lat": 34.739079,
    "lon": 135.331093,
    "lines": [
      "JR神戸線(大阪～神戸)"
    ]
  },
  {
    "code": "91ab98dc",
    "name": "ささしまライブ",
    "lat": 35.161745,
    "lon": 136.881815,
    "lines": [
      "あおなみ線"
    ]
  },
  {
    "code": "0a224dc0",
    "name": "さっぽろ",
    "lat": 43.06637,
    "lon": 141.350299,
    "lines": [
      "札幌市営地下鉄南北線",
      "札幌市営地下鉄東豊線"
    ]
  },
  {
    "code": "ebe20d62",
    "name": "さつき野",
    "lat": 37.812731,
    "lon": 139.117466,
    "lines": [
      "JR信越本線(直江津～新潟)"
    ]
  },
  {
    "code": "056bb7b5",
    "name": "ししぶ",
    "lat": 33.722223,
    "lon": 130.459042,
    "lines": [
      "JR鹿児島本線(下関・門司港～博多)"
    ]
  },
  {
    "code": "5e2641c1",
    "name": "しんざ",
    "lat": 37.139675,
    "lon": 138.768339,
    "lines": [
      "北越急行ほくほく線"
    ]
  },
  {
    "code": "fc25c4ee",
    "name": "すえたちばな",
    "lat": 33.316738,
    "lon": 129.613788,
    "lines": [
      "西九州線(伊万里～佐世保)"
    ]
  },
  {
    "code": "ea95ddc5",
    "name": "すすきの",
    "lat": 43.05578,
    "lon": 141.353257,
    "lines": [
      "札幌市営地下鉄南北線",
      "札幌市電"
    ]
  },
  {
    "code": "b451c2df",
    "name": "すずかけ台",
    "lat": 35.517094,
    "lon": 139.481684,
    "lines": [
      "東急田園都市線"
    ]
  },
  {
    "code": "71df2e74",
    "name": "すずらんの里",
    "lat": 35.930288,
    "lon": 138.211775,
    "lines": [
      "JR中央本線(東京～塩尻)"
    ]
  },
  {
    "code": "4b77e7e3",
    "name": "せきてらす前",
    "lat": 35.483434,
    "lon": 136.914195,
    "lines": [
      "長良川鉄道越美南線"
    ]
  },
  {
    "code": "67eff822",
    "name": "せんげん台",
    "lat": 35.935832,
    "lon": 139.774478,
    "lines": [
      "東武伊勢崎線"
    ]
  },
  {
    "code": "970a6dc8",
    "name": "たけふ新",
    "lat": 35.906426,
    "lon": 136.170274,
    "lines": [
      "福井鉄道福武線"
    ]
  },
  {
    "code": "2f3f6879",
    "name": "たのうら御立岬公園",
    "lat": 32.363202,
    "lon": 130.506705,
    "lines": [
      "肥薩おれんじ鉄道線"
    ]
  },
  {
    "code": "4d2a76c4",
    "name": "たびら平戸口",
    "lat": 33.362532,
    "lon": 129.582595,
    "lines": [
      "西九州線(伊万里～佐世保)"
    ]
  },
  {
    "code": "94004af6",
    "name": "たまプラーザ",
    "lat": 35.577427,
    "lon": 139.558447,
    "lines": [
      "東急田園都市線"
    ]
  },
  {
    "code": "d32efeeb",
    "name": "だいどう豊里",
    "lat": 34.743805,
    "lon": 135.544408,
    "lines": [
      "大阪メトロ今里筋線"
    ]
  },
  {
    "code": "cf4ba72c",
    "name": "ちはら台",
    "lat": 35.534017,
    "lon": 140.17029,
    "lines": [
      "京成千原線"
    ]
  },
  {
    "code": "ce786264",
    "name": "つきのわ",
    "lat": 36.04352,
    "lon": 139.345541,
    "lines": [
      "東武東上線"
    ]
  },
  {
    "code": "ba7bce07",
    "name": "つきみ野",
    "lat": 35.510546,
    "lon": 139.458651,
    "lines": [
      "東急田園都市線"
    ]
  },
  {
    "code": "5f3883a8",
    "name": "つくし野",
    "lat": 35.527559,
    "lon": 139.485139,
    "lines": [
      "東急田園都市線"
    ]
  },
  {
    "code": "e6cedc87",
    "name": "つくば",
    "lat": 36.0825,
    "lon": 140.110604,
    "lines": [
      "つくばエクスプレス"
    ]
  },
  {
    "code": "60bc5e1a",
    "name": "つつじヶ丘",
    "lat": 35.657936,
    "lon": 139.575103,
    "lines": [
      "京王線"
    ]
  },
  {
    "code": "3d0a1559",
    "name": "てだこ浦西",
    "lat": 26.241778,
    "lon": 127.741861,
    "lines": [
      "ゆいレール"
    ]
  },
  {
    "code": "7f34a89b",
    "name": "とうきょうスカイツリー",
    "lat": 35.71043,
    "lon": 139.809332,
    "lines": [
      "東武伊勢崎線"
    ]
  },
  {
    "code": "8bebc543",
    "name": "ときわ台",
    "lat": 35.3324525,
    "lon": 137.563605,
    "lines": [
      "東武東上線",
      "能勢電鉄妙見線"
    ]
  },
  {
    "code": "d8d26a85",
    "name": "なかもず",
    "lat": 34.55607,
    "lon": 135.50579,
    "lines": [
      "大阪メトロ御堂筋線"
    ]
  },
  {
    "code": "95a48f2f",
    "name": "なにわ橋",
    "lat": 34.692829,
    "lon": 135.506594,
    "lines": [
      "京阪中之島線"
    ]
  },
  {
    "code": "432c6db7",
    "name": "なんば",
    "lat": 34.666641,
    "lon": 135.4991383333,
    "lines": [
      "大阪メトロ千日前線",
      "大阪メトロ四つ橋線",
      "大阪メトロ御堂筋線"
    ]
  },
  {
    "code": "672776f9",
    "name": "のいち",
    "lat": 33.561649,
    "lon": 133.698366,
    "lines": [
      "ごめん・なはり線"
    ]
  },
  {
    "code": "f23c3165",
    "name": "のの岳",
    "lat": 38.552567,
    "lon": 141.225813,
    "lines": [
      "JR気仙沼線"
    ]
  },
  {
    "code": "c4f59c00",
    "name": "はなみずき通",
    "lat": 35.17767,
    "lon": 137.035369,
    "lines": [
      "リニモ"
    ]
  },
  {
    "code": "b5591dba",
    "name": "はりまや橋",
    "lat": 33.559617,
    "lon": 133.542852,
    "lines": [
      "ごめん線",
      "伊野線",
      "桟橋線"
    ]
  },
  {
    "code": "60d49388",
    "name": "はりま勝原",
    "lat": 34.810157,
    "lon": 134.614105,
    "lines": [
      "JR山陽本線(姫路～岡山)"
    ]
  },
  {
    "code": "7f9e315f",
    "name": "はるひ野",
    "lat": 35.618885,
    "lon": 139.464534,
    "lines": [
      "小田急多摩線"
    ]
  },
  {
    "code": "a93f37e1",
    "name": "ひがし野団地",
    "lat": 40.626624,
    "lon": 141.223714,
    "lines": [
      "十和田観光電鉄"
    ]
  },
  {
    "code": "b9a11dae",
    "name": "ひぐち",
    "lat": 36.357882,
    "lon": 139.970057,
    "lines": [
      "真岡鐵道真岡線"
    ]
  },
  {
    "code": "f67a8fc1",
    "name": "ひこね芹川",
    "lat": 35.262195,
    "lon": 136.260939,
    "lines": [
      "近江鉄道本線"
    ]
  },
  {
    "code": "862e69a3",
    "name": "ひたち野うしく",
    "lat": 36.007996,
    "lon": 140.158408,
    "lines": [
      "JR常磐線(取手～いわき)"
    ]
  },
  {
    "code": "776e4709",
    "name": "ひばりが丘",
    "lat": 43.032175,
    "lon": 141.464638,
    "lines": [
      "札幌市営地下鉄東西線"
    ]
  },
  {
    "code": "5ebf6d4a",
    "name": "ひばりヶ丘",
    "lat": 35.751485,
    "lon": 139.545852,
    "lines": [
      "西武池袋線"
    ]
  },
  {
    "code": "7b028d14",
    "name": "ひめじ別所",
    "lat": 34.805544,
    "lon": 134.753309,
    "lines": [
      "JR神戸線(神戸～姫路)"
    ]
  },
  {
    "code": "5071dd75",
    "name": "ひらんだ",
    "lat": 35.164806,
    "lon": 138.167507,
    "lines": [
      "南アルプスあぷとライン"
    ]
  },
  {
    "code": "9a60b7c1",
    "name": "ひろせ野鳥の森",
    "lat": 36.146242,
    "lon": 139.352086,
    "lines": [
      "秩父鉄道秩父本線"
    ]
  },
  {
    "code": "c83e6df8",
    "name": "びわ湖浜大津",
    "lat": 35.011283,
    "lon": 135.863982,
    "lines": [
      "京阪京津線",
      "京阪石山坂本線"
    ]
  },
  {
    "code": "39da8e31",
    "name": "ふかや花園",
    "lat": 36.132056,
    "lon": 139.251472,
    "lines": [
      "秩父鉄道秩父本線"
    ]
  },
  {
    "code": "f4b4b018",
    "name": "ふじみ野",
    "lat": 35.860735,
    "lon": 139.523389,
    "lines": [
      "東武東上線"
    ]
  },
  {
    "code": "913f3aae",
    "name": "ふるさと公園",
    "lat": 37.243051,
    "lon": 139.858958,
    "lines": [
      "会津鉄道会津線"
    ]
  },
  {
    "code": "7a874d9e",
    "name": "ふれあい生力",
    "lat": 33.700112,
    "lon": 130.765567,
    "lines": [
      "伊田線"
    ]
  },
  {
    "code": "b1ab8687",
    "name": "ほくほく大島",
    "lat": 37.146997,
    "lon": 138.509551,
    "lines": [
      "北越急行ほくほく線"
    ]
  },
  {
    "code": "5c3efe4f",
    "name": "ほしみ",
    "lat": 43.13373,
    "lon": 141.191402,
    "lines": [
      "JR函館本線(小樽～旭川)"
    ]
  },
  {
    "code": "ea8c7c18",
    "name": "ほっとゆだ",
    "lat": 39.314493,
    "lon": 140.775647,
    "lines": [
      "JR北上線"
    ]
  },
  {
    "code": "9e577981",
    "name": "まつだい",
    "lat": 37.132209,
    "lon": 138.613884,
    "lines": [
      "北越急行ほくほく線"
    ]
  },
  {
    "code": "47a47820",
    "name": "まつもと町屋",
    "lat": 36.07696597,
    "lon": 136.2290465,
    "lines": [
      "えちぜん鉄道三国芦原線"
    ]
  },
  {
    "code": "56b5118f",
    "name": "みさき公園",
    "lat": 34.323986,
    "lon": 135.160977,
    "lines": [
      "南海多奈川線",
      "南海本線"
    ]
  },
  {
    "code": "9c799c7b",
    "name": "みずほ台",
    "lat": 35.838233,
    "lon": 139.55078,
    "lines": [
      "東武東上線"
    ]
  },
  {
    "code": "34e03857",
    "name": "みつわ台",
    "lat": 35.6387,
    "lon": 140.134873,
    "lines": [
      "千葉都市モノレール２号線"
    ]
  },
  {
    "code": "ad816591",
    "name": "みどりの",
    "lat": 36.03025,
    "lon": 140.056276,
    "lines": [
      "つくばエクスプレス"
    ]
  },
  {
    "code": "cce00097",
    "name": "みどり中央",
    "lat": 34.430248,
    "lon": 132.589435,
    "lines": [
      "スカイレールみどり坂線"
    ]
  },
  {
    "code": "9f155bf6",
    "name": "みどり中街",
    "lat": 34.42771,
    "lon": 132.594804,
    "lines": [
      "スカイレールみどり坂線"
    ]
  },
  {
    "code": "680bfd15",
    "name": "みどり口",
    "lat": 34.422294,
    "lon": 132.596248,
    "lines": [
      "スカイレールみどり坂線"
    ]
  },
  {
    "code": "0de40d96",
    "name": "みどり台",
    "lat": 35.624994,
    "lon": 140.097413,
    "lines": [
      "京成千葉線"
    ]
  },
  {
    "code": "dfc5a944",
    "name": "みどり湖",
    "lat": 36.094176,
    "lon": 137.981928,
    "lines": [
      "JR中央本線(東京～塩尻)"
    ]
  },
  {
    "code": "151203ba",
    "name": "みなとじま",
    "lat": 34.668863,
    "lon": 135.210105,
    "lines": [
      "ポートライナー"
    ]
  },
  {
    "code": "e73afc35",
    "name": "みなとみらい",
    "lat": 35.458028,
    "lon": 139.632386,
    "lines": [
      "みなとみらい線"
    ]
  },
  {
    "code": "5172bb4a",
    "name": "みなと元町",
    "lat": 34.685875,
    "lon": 135.183973,
    "lines": [
      "夢かもめ"
    ]
  },
  {
    "code": "d814a155",
    "name": "みなみ子宝温泉",
    "lat": 35.627308,
    "lon": 136.950618,
    "lines": [
      "長良川鉄道越美南線"
    ]
  },
  {
    "code": "6150beb8",
    "name": "みなみ寄居",
    "lat": 36.092417,
    "lon": 139.2365,
    "lines": [
      "東武東上線"
    ]
  },
  {
    "code": "a0801caa",
    "name": "みの",
    "lat": 34.205633,
    "lon": 133.710655,
    "lines": [
      "JR予讃線"
    ]
  },
  {
    "code": "3d4a1e6a",
    "name": "みのり台",
    "lat": 35.789346,
    "lon": 139.929466,
    "lines": [
      "京成松戸線"
    ]
  },
  {
    "code": "af6a4085",
    "name": "みらい平",
    "lat": 35.99514,
    "lon": 140.038555,
    "lines": [
      "つくばエクスプレス"
    ]
  },
  {
    "code": "2d4c8c98",
    "name": "めがね橋",
    "lat": 32.746785,
    "lon": 129.878204,
    "lines": [
      "長崎電軌４系統",
      "長崎電軌５系統"
    ]
  },
  {
    "code": "797657b6",
    "name": "めじろ台",
    "lat": 35.643601,
    "lon": 139.308446,
    "lines": [
      "京王高尾線"
    ]
  },
  {
    "code": "5b941b27",
    "name": "やぐま台",
    "lat": 34.673809,
    "lon": 137.309427,
    "lines": [
      "豊橋鉄道渥美線"
    ]
  },
  {
    "code": "37e952aa",
    "name": "やながわ希望の森公園前",
    "lat": 37.857867,
    "lon": 140.615552,
    "lines": [
      "阿武隈急行線"
    ]
  },
  {
    "code": "1666ac25",
    "name": "ゆいの杜中央",
    "lat": 36.56775,
    "lon": 139.992972,
    "lines": [
      "芳賀・宇都宮LRT"
    ]
  },
  {
    "code": "7f3644bc",
    "name": "ゆいの杜東",
    "lat": 36.5676204513,
    "lon": 139.9983198253,
    "lines": [
      "芳賀・宇都宮LRT"
    ]
  },
  {
    "code": "730a2b80",
    "name": "ゆいの杜西",
    "lat": 36.5672967694,
    "lon": 139.9867570295,
    "lines": [
      "芳賀・宇都宮LRT"
    ]
  },
  {
    "code": "ceca7ecf",
    "name": "ゆだ錦秋湖",
    "lat": 39.295513,
    "lon": 140.835343,
    "lines": [
      "JR北上線"
    ]
  },
  {
    "code": "35c81684",
    "name": "ゆだ高原",
    "lat": 39.301074,
    "lon": 140.737205,
    "lines": [
      "JR北上線"
    ]
  },
  {
    "code": "f8744e4a",
    "name": "ゆめが丘",
    "lat": 35.405436,
    "lon": 139.482192,
    "lines": [
      "相鉄いずみ野線"
    ]
  },
  {
    "code": "f30f94ac",
    "name": "ゆめみ野",
    "lat": 35.921129,
    "lon": 140.034789,
    "lines": [
      "関東鉄道常総線"
    ]
  },
  {
    "code": "680e1222",
    "name": "よしかわ",
    "lat": 33.546089,
    "lon": 133.710352,
    "lines": [
      "ごめん・なはり線"
    ]
  },
  {
    "code": "8389a956",
    "name": "りんくうタウン",
    "lat": 34.410308,
    "lon": 135.300117,
    "lines": [
      "JR関西空港線",
      "南海空港線"
    ]
  },
  {
    "code": "d6a955f6",
    "name": "りんくう常滑",
    "lat": 34.87967,
    "lon": 136.828164,
    "lines": [
      "名鉄常滑・空港線"
    ]
  },
  {
    "code": "c29cca2c",
    "name": "アイランドセンター",
    "lat": 34.689103,
    "lon": 135.269347,
    "lines": [
      "六甲ライナー"
    ]
  },
  {
    "code": "a1c44b9c",
    "name": "アイランド北口",
    "lat": 34.692853,
    "lon": 135.26875,
    "lines": [
      "六甲ライナー"
    ]
  },
  {
    "code": "fecf5078",
    "name": "アスモ前",
    "lat": 34.727685,
    "lon": 137.49405,
    "lines": [
      "天竜浜名湖線"
    ]
  },
  {
    "code": "a8999086",
    "name": "アプトいちしろ",
    "lat": 35.167514,
    "lon": 138.144825,
    "lines": [
      "南アルプスあぷとライン"
    ]
  },
  {
    "code": "9e94d19a",
    "name": "インテック本社前",
    "lat": 36.703556,
    "lon": 137.216685,
    "lines": [
      "富山港線"
    ]
  },
  {
    "code": "ef48bbcb",
    "name": "ウェスパ椿山",
    "lat": 40.592913,
    "lon": 139.871157,
    "lines": [
      "JR五能線"
    ]
  },
  {
    "code": "f28add7d",
    "name": "ウッディタウン中央",
    "lat": 34.909767,
    "lon": 135.183707,
    "lines": [
      "公園都市線"
    ]
  },
  {
    "code": "dd08996a",
    "name": "オレンジタウン",
    "lat": 34.301879,
    "lon": 134.180827,
    "lines": [
      "JR高徳線"
    ]
  },
  {
    "code": "3d2809e1",
    "name": "オークスカナルパークホテル富山前",
    "lat": 36.7037461876,
    "lon": 137.2146739887,
    "lines": [
      "富山港線"
    ]
  },
  {
    "code": "3fb34261",
    "name": "グランドプラザ前",
    "lat": 36.688923,
    "lon": 137.213386,
    "lines": [
      "富山地鉄富山都心線【３系統(環状線)】"
    ]
  },
  {
    "code": "ce656fc6",
    "name": "グランド通",
    "lat": 33.55774,
    "lon": 133.529356,
    "lines": [
      "伊野線"
    ]
  },
  {
    "code": "288fdf05",
    "name": "グリーンスタジアム前",
    "lat": 36.5536160261,
    "lon": 139.9832499374,
    "lines": [
      "芳賀・宇都宮LRT"
    ]
  },
  {
    "code": "f215d069",
    "name": "ケーブル八幡宮口",
    "lat": 34.88453597,
    "lon": 135.6995372,
    "lines": [
      "石清水八幡宮参道ケーブル"
    ]
  },
  {
    "code": "544ad5f8",
    "name": "ケーブル八幡宮山上",
    "lat": 34.881061,
    "lon": 135.699796,
    "lines": [
      "石清水八幡宮参道ケーブル"
    ]
  },
  {
    "code": "fb2dc92e",
    "name": "コウノトリの郷",
    "lat": 35.552816,
    "lon": 134.835391,
    "lines": [
      "宮豊線"
    ]
  },
  {
    "code": "25983cd9",
    "name": "コスモスクエア",
    "lat": 34.642888,
    "lon": 135.412472,
    "lines": [
      "大阪メトロ中央線",
      "大阪メトロ南港ポートタウン線"
    ]
  },
  {
    "code": "487189df",
    "name": "サッポロビール庭園",
    "lat": 42.866812,
    "lon": 141.605616,
    "lines": [
      "JR千歳線"
    ]
  },
  {
    "code": "f0d655a4",
    "name": "サンドーム西",
    "lat": 35.936514,
    "lon": 136.180564,
    "lines": [
      "福井鉄道福武線"
    ]
  },
  {
    "code": "328703da",
    "name": "ジヤトコ前（ジヤトコ１地区前）",
    "lat": 35.157775,
    "lon": 138.690076,
    "lines": [
      "岳南鉄道線"
    ]
  },
  {
    "code": "daba010f",
    "name": "スクリーン",
    "lat": 35.233264,
    "lon": 136.267258,
    "lines": [
      "近江鉄道多賀線"
    ]
  },
  {
    "code": "f19e6cc4",
    "name": "スタジアムシティサウス（宝町）",
    "lat": 32.75783,
    "lon": 129.868913,
    "lines": [
      "長崎電軌１系統",
      "長崎電軌３系統"
    ]
  },
  {
    "code": "36080c40",
    "name": "スタジアムシティノース（銭座町）",
    "lat": 32.761475,
    "lon": 129.865801,
    "lines": [
      "長崎電軌１系統",
      "長崎電軌３系統"
    ]
  },
  {
    "code": "ad42c247",
    "name": "スペースワールド",
    "lat": 33.871246,
    "lon": 130.806197,
    "lines": [
      "JR鹿児島本線(下関・門司港～博多)"
    ]
  },
  {
    "code": "02ca362d",
    "name": "スポーツセンター",
    "lat": 35.643164,
    "lon": 140.11611,
    "lines": [
      "千葉都市モノレール２号線"
    ]
  },
  {
    "code": "3f97ca4e",
    "name": "スポーツ公園",
    "lat": 35.919093,
    "lon": 136.168105,
    "lines": [
      "福井鉄道福武線"
    ]
  },
  {
    "code": "b198891f",
    "name": "センター北",
    "lat": 35.553532,
    "lon": 139.5784215,
    "lines": [
      "グリーンライン",
      "ブルーライン"
    ]
  },
  {
    "code": "5022857a",
    "name": "センター南",
    "lat": 35.5456695,
    "lon": 139.574308,
    "lines": [
      "グリーンライン",
      "ブルーライン"
    ]
  },
  {
    "code": "01812583",
    "name": "ソシオ流通センター",
    "lat": 36.1365,
    "lon": 139.424333,
    "lines": [
      "秩父鉄道秩父本線"
    ]
  },
  {
    "code": "bc30f1d0",
    "name": "テクノさかき",
    "lat": 36.440584,
    "lon": 138.188204,
    "lines": [
      "しなの鉄道線"
    ]
  },
  {
    "code": "b79df8eb",
    "name": "テレコムセンター",
    "lat": 35.617593,
    "lon": 139.779327,
    "lines": [
      "ゆりかもめ"
    ]
  },
  {
    "code": "6160a66a",
    "name": "デンテツターミナルビル前",
    "lat": 33.55926,
    "lon": 133.545964,
    "lines": [
      "ごめん線"
    ]
  },
  {
    "code": "b0d30daf",
    "name": "トマム",
    "lat": 43.055913,
    "lon": 142.610937,
    "lines": [
      "JR石勝線"
    ]
  },
  {
    "code": "f2f0b3e5",
    "name": "トヨタモビリティ富山 Gスクエア五福前",
    "lat": 36.694834,
    "lon": 137.19542,
    "lines": [
      "富山地鉄市内線【１・２系統】"
    ]
  },
  {
    "code": "0477a641",
    "name": "トレードセンター前",
    "lat": 34.63865,
    "lon": 135.412336,
    "lines": [
      "大阪メトロ南港ポートタウン線"
    ]
  },
  {
    "code": "2e44168b",
    "name": "トロッコ亀岡",
    "lat": 35.01314,
    "lon": 135.606751,
    "lines": [
      "嵯峨野観光線"
    ]
  },
  {
    "code": "6b59aab4",
    "name": "トロッコ保津峡",
    "lat": 35.026148,
    "lon": 135.646284,
    "lines": [
      "嵯峨野観光線"
    ]
  },
  {
    "code": "30962531",
    "name": "トロッコ嵐山",
    "lat": 35.017162,
    "lon": 135.670252,
    "lines": [
      "嵯峨野観光線"
    ]
  },
  {
    "code": "1df0ee7e",
    "name": "トロッコ嵯峨",
    "lat": 35.018656,
    "lon": 135.680704,
    "lines": [
      "嵯峨野観光線"
    ]
  },
  {
    "code": "66523a2d",
    "name": "ドーム前",
    "lat": 34.670266,
    "lon": 135.478313,
    "lines": [
      "阪神なんば線"
    ]
  },
  {
    "code": "3969e102",
    "name": "ドーム前千代崎",
    "lat": 34.670757,
    "lon": 135.479415,
    "lines": [
      "大阪メトロ長堀鶴見緑地線"
    ]
  },
  {
    "code": "fdeff082",
    "name": "ナゴヤドーム前矢田",
    "lat": 35.1904705,
    "lon": 136.946331,
    "lines": [
      "ゆとりーとライン",
      "名古屋市営地下鉄名城線"
    ]
  },
  {
    "code": "b3487800",
    "name": "ニセコ",
    "lat": 42.808746,
    "lon": 140.684588,
    "lines": [
      "JR函館本線(長万部～小樽)"
    ]
  },
  {
    "code": "3a33a407",
    "name": "ノーフォーク広場",
    "lat": 33.955973,
    "lon": 130.964254,
    "lines": [
      "門司港レトロ観光線"
    ]
  },
  {
    "code": "ea95f100",
    "name": "ハウステンボス",
    "lat": 33.091923,
    "lon": 129.796458,
    "lines": [
      "JR大村線"
    ]
  },
  {
    "code": "f13bff86",
    "name": "ハーバーランド",
    "lat": 34.678554,
    "lon": 135.178657,
    "lines": [
      "夢かもめ"
    ]
  },
  {
    "code": "714a1f23",
    "name": "ハーモニーホール",
    "lat": 36.014187,
    "lon": 136.205433,
    "lines": [
      "福井鉄道福武線"
    ]
  },
  {
    "code": "33756499",
    "name": "バスセンター前",
    "lat": 43.061268,
    "lon": 141.360473,
    "lines": [
      "札幌市営地下鉄東西線"
    ]
  },
  {
    "code": "2ec6d738",
    "name": "バルーンさが",
    "lat": 33.257795,
    "lon": 130.248942,
    "lines": [
      "JR唐津線",
      "JR長崎本線(鳥栖～長崎)"
    ]
  },
  {
    "code": "8e72bbd0",
    "name": "ファミリー公園前",
    "lat": 34.597968,
    "lon": 135.784987,
    "lines": [
      "近鉄橿原線"
    ]
  },
  {
    "code": "982d25ff",
    "name": "フェリーターミナル",
    "lat": 34.619253,
    "lon": 135.434962,
    "lines": [
      "大阪メトロ南港ポートタウン線"
    ]
  },
  {
    "code": "1ee3997c",
    "name": "フジテック前",
    "lat": 35.294672,
    "lon": 136.285465,
    "lines": [
      "近江鉄道本線"
    ]
  },
  {
    "code": "4aa97fd6",
    "name": "フラワータウン",
    "lat": 34.88546,
    "lon": 135.202334,
    "lines": [
      "公園都市線"
    ]
  },
  {
    "code": "15a4cbea",
    "name": "フルーツパーク",
    "lat": 34.834406,
    "lon": 137.731976,
    "lines": [
      "天竜浜名湖線"
    ]
  },
  {
    "code": "11cc2687",
    "name": "プレイピア白浜",
    "lat": 40.524448,
    "lon": 141.581528,
    "lines": [
      "JR八戸線"
    ]
  },
  {
    "code": "0043a027",
    "name": "ベル前",
    "lat": 36.033685,
    "lon": 136.213882,
    "lines": [
      "福井鉄道福武線"
    ]
  },
  {
    "code": "4dbcbf69",
    "name": "ポートタウン東",
    "lat": 34.630882,
    "lon": 135.429085,
    "lines": [
      "大阪メトロ南港ポートタウン線"
    ]
  },
  {
    "code": "7c7a62cb",
    "name": "ポートタウン西",
    "lat": 34.630899,
    "lon": 135.422777,
    "lines": [
      "大阪メトロ南港ポートタウン線"
    ]
  },
  {
    "code": "48d49b1b",
    "name": "ポートターミナル",
    "lat": 34.681501,
    "lon": 135.202205,
    "lines": [
      "ポートライナー"
    ]
  },
  {
    "code": "ee954359",
    "name": "マキノ",
    "lat": 35.461437,
    "lon": 136.05978,
    "lines": [
      "JR湖西線"
    ]
  },
  {
    "code": "179aedc9",
    "name": "マリンパーク",
    "lat": 34.684176,
    "lon": 135.270077,
    "lines": [
      "六甲ライナー"
    ]
  },
  {
    "code": "7c5fde5d",
    "name": "メディカルセンター",
    "lat": 32.740523,
    "lon": 129.87241,
    "lines": [
      "長崎電軌５系統"
    ]
  },
  {
    "code": "3d0bae1d",
    "name": "モノレール浜松町",
    "lat": 35.655666,
    "lon": 139.756747,
    "lines": [
      "東京モノレール"
    ]
  },
  {
    "code": "f32823e2",
    "name": "モレラ岐阜",
    "lat": 35.455112,
    "lon": 136.669729,
    "lines": [
      "樽見鉄道樽見線"
    ]
  },
  {
    "code": "62f69d30",
    "name": "ヤナバスキー場前",
    "lat": 36.605851,
    "lon": 137.855039,
    "lines": [
      "北アルプス線"
    ]
  },
  {
    "code": "99f43d43",
    "name": "ユニバーサルシティ",
    "lat": 34.667842,
    "lon": 135.438705,
    "lines": [
      "JRゆめ咲線"
    ]
  },
  {
    "code": "4a9ef6e0",
    "name": "ユーカリが丘",
    "lat": 35.722024,
    "lon": 140.1566865,
    "lines": [
      "ユーカリが丘線",
      "京成本線"
    ]
  },
  {
    "code": "f548b5e9",
    "name": "ラベンダー畑",
    "lat": 43.42065,
    "lon": 142.434032,
    "lines": [
      "JR富良野線"
    ]
  },
  {
    "code": "36c1fa8f",
    "name": "ロイズタウン",
    "lat": 43.179589,
    "lon": 141.436236,
    "lines": [
      "JR札沼線"
    ]
  },
  {
    "code": "be92778c",
    "name": "ロープウェイ入口",
    "lat": 43.03367,
    "lon": 141.337287,
    "lines": [
      "札幌市電"
    ]
  },
  {
    "code": "25c60a39",
    "name": "一の渡",
    "lat": 39.686895,
    "lon": 141.94264,
    "lines": [
      "三陸鉄道リアス線"
    ]
  },
  {
    "code": "a301a8a0",
    "name": "一の鳥居",
    "lat": 34.879599,
    "lon": 135.419888,
    "lines": [
      "能勢電鉄妙見線"
    ]
  },
  {
    "code": "ce35b66f",
    "name": "一ツ木",
    "lat": 35.01367,
    "lon": 137.02551,
    "lines": [
      "名鉄名古屋本線"
    ]
  },
  {
    "code": "5a5b6a47",
    "name": "一ノ割",
    "lat": 35.96412,
    "lon": 139.766219,
    "lines": [
      "東武伊勢崎線"
    ]
  },
  {
    "code": "f53870c9",
    "name": "一ノ関",
    "lat": 38.926514,
    "lon": 141.138177,
    "lines": [
      "JR東北本線(黒磯～利府・盛岡)",
      "ドラゴンレール大船渡線"
    ]
  },
  {
    "code": "3ecfff0b",
    "name": "一之江",
    "lat": 35.686055,
    "lon": 139.882934,
    "lines": [
      "都営新宿線"
    ]
  },
  {
    "code": "9111286c",
    "name": "一乗寺",
    "lat": 35.044247,
    "lon": 135.787416,
    "lines": [
      "叡山電鉄叡山本線"
    ]
  },
  {
    "code": "1ec6bbf5",
    "name": "一乗谷",
    "lat": 36.013679,
    "lon": 136.2974,
    "lines": [
      "九頭竜線"
    ]
  },
  {
    "code": "574c783f",
    "name": "一分",
    "lat": 34.675408,
    "lon": 135.707992,
    "lines": [
      "近鉄生駒線"
    ]
  },
  {
    "code": "05dc98d0",
    "name": "一勝地",
    "lat": 32.250231,
    "lon": 130.652399,
    "lines": [
      "えびの高原線(八代～吉松)"
    ]
  },
  {
    "code": "03093e01",
    "name": "一宮",
    "lat": 34.283027,
    "lon": 134.022561,
    "lines": [
      "琴電琴平線"
    ]
  },
  {
    "code": "0eae9726",
    "name": "一志",
    "lat": 34.654894,
    "lon": 136.436067,
    "lines": [
      "JR名松線"
    ]
  },
  {
    "code": "626c62b1",
    "name": "一戸",
    "lat": 40.210092,
    "lon": 141.297419,
    "lines": [
      "いわて銀河鉄道線"
    ]
  },
  {
    "code": "b43137a2",
    "name": "一日市場",
    "lat": 36.2596,
    "lon": 137.904136,
    "lines": [
      "北アルプス線"
    ]
  },
  {
    "code": "25dbc2ed",
    "name": "一本松",
    "lat": 34.798075,
    "lon": 135.1029215,
    "lines": [
      "JR日田彦山線",
      "東武越生線"
    ]
  },
  {
    "code": "78925adb",
    "name": "一条橋",
    "lat": 33.574833,
    "lon": 133.613802,
    "lines": [
      "ごめん線"
    ]
  },
  {
    "code": "6eb2215d",
    "name": "一橋学園",
    "lat": 35.72217,
    "lon": 139.480039,
    "lines": [
      "西武多摩湖線"
    ]
  },
  {
    "code": "26e00524",
    "name": "一武",
    "lat": 32.214551,
    "lon": 130.839915,
    "lines": [
      "湯前線"
    ]
  },
  {
    "code": "b63b29f5",
    "name": "一畑口",
    "lat": 35.464605,
    "lon": 132.882819,
    "lines": [
      "北松江線"
    ]
  },
  {
    "code": "d7bb020d",
    "name": "一社",
    "lat": 35.168231,
    "lon": 136.995927,
    "lines": [
      "名古屋市営地下鉄東山線"
    ]
  },
  {
    "code": "b3924934",
    "name": "一貴山",
    "lat": 33.534294,
    "lon": 130.168236,
    "lines": [
      "JR筑肥線(姪浜～西唐津)"
    ]
  },
  {
    "code": "c768f895",
    "name": "一身田",
    "lat": 34.76278,
    "lon": 136.49938,
    "lines": [
      "JR紀勢本線"
    ]
  },
  {
    "code": "a663d2bd",
    "name": "七ツ屋",
    "lat": 36.583108,
    "lon": 136.651752,
    "lines": [
      "北陸鉄道浅野川線"
    ]
  },
  {
    "code": "8fe160bc",
    "name": "七ヶ岳登山口",
    "lat": 37.124184,
    "lon": 139.717388,
    "lines": [
      "会津鉄道会津線"
    ]
  },
  {
    "code": "9c502f36",
    "name": "七久保",
    "lat": 35.654645,
    "lon": 137.911346,
    "lines": [
      "JR飯田線(天竜峡～辰野)"
    ]
  },
  {
    "code": "2b08e1da",
    "name": "七井",
    "lat": 36.491814,
    "lon": 140.09439,
    "lines": [
      "真岡鐵道真岡線"
    ]
  },
  {
    "code": "d1cb14d0",
    "name": "七光台",
    "lat": 35.970884,
    "lon": 139.852906,
    "lines": [
      "東武アーバンパークライン（東武野田線）"
    ]
  },
  {
    "code": "7b415392",
    "name": "七和",
    "lat": 35.06888,
    "lon": 136.615722,
    "lines": [
      "三岐鉄道北勢線"
    ]
  },
  {
    "code": "db73476f",
    "name": "七塚",
    "lat": 34.844391,
    "lon": 132.98584,
    "lines": [
      "JR芸備線"
    ]
  },
  {
    "code": "2a4bbd25",
    "name": "七宝",
    "lat": 35.195775,
    "lon": 136.806413,
    "lines": [
      "名鉄津島線"
    ]
  },
  {
    "code": "bc2a9dfd",
    "name": "七尾",
    "lat": 37.041613,
    "lon": 136.964501,
    "lines": [
      "JR七尾線",
      "のと鉄道七尾線"
    ]
  },
  {
    "code": "655e86b4",
    "name": "七日町",
    "lat": 37.50121,
    "lon": 139.918958,
    "lines": [
      "JR只見線"
    ]
  },
  {
    "code": "2efa3c62",
    "name": "七条",
    "lat": 34.989322,
    "lon": 135.767846,
    "lines": [
      "京阪本線"
    ]
  },
  {
    "code": "9ca2f7b9",
    "name": "七百",
    "lat": 40.643631,
    "lon": 141.305855,
    "lines": [
      "十和田観光電鉄"
    ]
  },
  {
    "code": "6af34a1d",
    "name": "七軒茶屋",
    "lat": 34.472609,
    "lon": 132.481156,
    "lines": [
      "JR可部線"
    ]
  },
  {
    "code": "1a0817f8",
    "name": "七道",
    "lat": 34.592313,
    "lon": 135.480556,
    "lines": [
      "南海本線"
    ]
  },
  {
    "code": "9d27ff84",
    "name": "七里",
    "lat": 35.936464,
    "lon": 139.665948,
    "lines": [
      "東武アーバンパークライン（東武野田線）"
    ]
  },
  {
    "code": "c0a45a5d",
    "name": "七里ヶ浜",
    "lat": 35.306243,
    "lon": 139.510101,
    "lines": [
      "江ノ島電鉄線"
    ]
  },
  {
    "code": "e012e217",
    "name": "七重浜",
    "lat": 41.817643,
    "lon": 140.707957,
    "lines": [
      "道南いさりび鉄道線"
    ]
  },
  {
    "code": "cd5906ea",
    "name": "七隈",
    "lat": 33.552819,
    "lon": 130.361628,
    "lines": [
      "福岡市営地下鉄七隈線"
    ]
  },
  {
    "code": "f81ddfe7",
    "name": "七飯",
    "lat": 41.886971,
    "lon": 140.688556,
    "lines": [
      "JR函館本線(函館～長万部)"
    ]
  },
  {
    "code": "6146485c",
    "name": "万ケ塚",
    "lat": 31.817215,
    "lon": 131.063991,
    "lines": [
      "えびの高原線"
    ]
  },
  {
    "code": "0d76c1fc",
    "name": "万博記念公園",
    "lat": 35.2239313333,
    "lon": 137.039904,
    "lines": [
      "つくばエクスプレス",
      "大阪モノレール彩都線",
      "大阪モノレール線"
    ]
  },
  {
    "code": "78fc13e9",
    "name": "万場",
    "lat": 35.833702,
    "lon": 136.883093,
    "lines": [
      "長良川鉄道越美南線"
    ]
  },
  {
    "code": "e5e9ea49",
    "name": "万富",
    "lat": 34.758256,
    "lon": 134.080609,
    "lines": [
      "JR山陽本線(姫路～岡山)"
    ]
  },
  {
    "code": "d5cbbbba",
    "name": "万座・鹿沢口",
    "lat": 36.531967,
    "lon": 138.551395,
    "lines": [
      "JR吾妻線"
    ]
  },
  {
    "code": "74cd85ad",
    "name": "万石浦",
    "lat": 38.428855,
    "lon": 141.368555,
    "lines": [
      "JR石巻線"
    ]
  },
  {
    "code": "715f1dd7",
    "name": "万能倉",
    "lat": 34.551092,
    "lon": 133.338516,
    "lines": [
      "JR福塩線"
    ]
  },
  {
    "code": "70d6d8ff",
    "name": "万願寺",
    "lat": 35.671249,
    "lon": 139.420079,
    "lines": [
      "多摩モノレール"
    ]
  },
  {
    "code": "52e8f221",
    "name": "三つ峠",
    "lat": 35.524291,
    "lon": 138.84555,
    "lines": [
      "富士急行線"
    ]
  },
  {
    "code": "41427f9b",
    "name": "三ケ根",
    "lat": 34.836449,
    "lon": 137.176348,
    "lines": [
      "JR東海道本線(浜松～岐阜)"
    ]
  },
  {
    "code": "37d7b7ad",
    "name": "三ツ境",
    "lat": 35.467779,
    "lon": 139.502662,
    "lines": [
      "相鉄・JR直通線",
      "相鉄本線"
    ]
  },
  {
    "code": "b60f2071",
    "name": "三ツ屋",
    "lat": 36.611941,
    "lon": 136.645538,
    "lines": [
      "北陸鉄道浅野川線"
    ]
  },
  {
    "code": "af9b44aa",
    "name": "三ツ松",
    "lat": 34.411135,
    "lon": 135.383387,
    "lines": [
      "水間鉄道水間線"
    ]
  },
  {
    "code": "85e8b9a4",
    "name": "三ツ沢上町",
    "lat": 35.476526,
    "lon": 139.605395,
    "lines": [
      "ブルーライン"
    ]
  },
  {
    "code": "47ee0061",
    "name": "三ツ沢下町",
    "lat": 35.476512,
    "lon": 139.61481,
    "lines": [
      "ブルーライン"
    ]
  },
  {
    "code": "439c767f",
    "name": "三ツ石",
    "lat": 32.864265,
    "lon": 130.738378,
    "lines": [
      "熊本電鉄本線"
    ]
  },
  {
    "code": "7d580065",
    "name": "三ノ宮",
    "lat": 34.694766,
    "lon": 135.195058,
    "lines": [
      "JR神戸線(大阪～神戸)"
    ]
  },
  {
    "code": "9ee61ad9",
    "name": "三ノ輪",
    "lat": 35.729623,
    "lon": 139.791485,
    "lines": [
      "東京メトロ日比谷線"
    ]
  },
  {
    "code": "714ff293",
    "name": "三ノ輪橋",
    "lat": 35.732248,
    "lon": 139.791412,
    "lines": [
      "東京さくらトラム（都電荒川線）"
    ]
  },
  {
    "code": "87b89dee",
    "name": "三ヶ山口",
    "lat": 34.407247,
    "lon": 135.385026,
    "lines": [
      "水間鉄道水間線"
    ]
  },
  {
    "code": "44f264b6",
    "name": "三ヶ日",
    "lat": 34.802565,
    "lon": 137.551705,
    "lines": [
      "天竜浜名湖線"
    ]
  },
  {
    "code": "e5856e90",
    "name": "三ヶ森",
    "lat": 33.834776,
    "lon": 130.735982,
    "lines": [
      "筑豊電気鉄道線"
    ]
  },
  {
    "code": "f52766f8",
    "name": "三井寺",
    "lat": 35.012891,
    "lon": 135.859793,
    "lines": [
      "京阪石山坂本線"
    ]
  },
  {
    "code": "3f1e1633",
    "name": "三井野原",
    "lat": 35.091399,
    "lon": 133.116341,
    "lines": [
      "JR木次線"
    ]
  },
  {
    "code": "f186c57f",
    "name": "三代橋",
    "lat": 33.188949,
    "lon": 129.866336,
    "lines": [
      "西九州線(有田～伊万里)"
    ]
  },
  {
    "code": "4b7a0189",
    "name": "三会",
    "lat": 32.814936,
    "lon": 130.35713,
    "lines": [
      "島原鉄道線"
    ]
  },
  {
    "code": "b651c98c",
    "name": "三保三隅",
    "lat": 34.795619,
    "lon": 131.956055,
    "lines": [
      "JR山陰本線(米子～益田)"
    ]
  },
  {
    "code": "d9471d96",
    "name": "三俣",
    "lat": 36.393748,
    "lon": 139.089192,
    "lines": [
      "上毛電気鉄道上毛線"
    ]
  },
  {
    "code": "3db7dbcc",
    "name": "三加茂",
    "lat": 34.0357,
    "lon": 133.949211,
    "lines": [
      "よしの川ブルーライン"
    ]
  },
  {
    "code": "acc4dec8",
    "name": "三十八社",
    "lat": 35.989143,
    "lon": 136.193805,
    "lines": [
      "福井鉄道福武線"
    ]
  },
  {
    "code": "5493da69",
    "name": "三原",
    "lat": 34.400486,
    "lon": 133.083049,
    "lines": [
      "JR呉線",
      "JR山陽本線(三原～岩国)",
      "JR山陽本線(岡山～三原)"
    ]
  },
  {
    "code": "2e13e12c",
    "name": "三厩",
    "lat": 41.185404,
    "lon": 140.444482,
    "lines": [
      "JR津軽線"
    ]
  },
  {
    "code": "364bc845",
    "name": "三口",
    "lat": 36.606572,
    "lon": 136.647579,
    "lines": [
      "北陸鉄道浅野川線"
    ]
  },
  {
    "code": "5ac335b8",
    "name": "三咲",
    "lat": 35.749217,
    "lon": 140.028514,
    "lines": [
      "京成松戸線"
    ]
  },
  {
    "code": "5e849c72",
    "name": "三国",
    "lat": 35.477133,
    "lon": 135.8163715,
    "lines": [
      "えちぜん鉄道三国芦原線",
      "阪急宝塚本線"
    ]
  },
  {
    "code": "8ec548f7",
    "name": "三国が丘",
    "lat": 33.436862,
    "lon": 130.563183,
    "lines": [
      "西鉄天神大牟田線"
    ]
  },
  {
    "code": "6e59577f",
    "name": "三国ケ丘",
    "lat": 34.566319,
    "lon": 135.492743,
    "lines": [
      "阪和線(天王寺～和歌山)"
    ]
  },
  {
    "code": "39229a4f",
    "name": "三国ヶ丘",
    "lat": 34.565259,
    "lon": 135.492668,
    "lines": [
      "南海高野線"
    ]
  },
  {
    "code": "ef163c49",
    "name": "三国港",
    "lat": 36.220264,
    "lon": 136.140049,
    "lines": [
      "えちぜん鉄道三国芦原線"
    ]
  },
  {
    "code": "e77b73c2",
    "name": "三国神社",
    "lat": 36.214773,
    "lon": 136.158037,
    "lines": [
      "えちぜん鉄道三国芦原線"
    ]
  },
  {
    "code": "d678144c",
    "name": "三好ヶ丘",
    "lat": 35.126918,
    "lon": 137.111219,
    "lines": [
      "名鉄豊田線"
    ]
  },
  {
    "code": "e310f5a9",
    "name": "三好町",
    "lat": 36.391712,
    "lon": 138.235585,
    "lines": [
      "上田電鉄別所線"
    ]
  },
  {
    "code": "030780d8",
    "name": "三妻",
    "lat": 36.073507,
    "lon": 139.983052,
    "lines": [
      "関東鉄道常総線"
    ]
  },
  {
    "code": "457f5320",
    "name": "三宅八幡",
    "lat": 35.062387,
    "lon": 135.796207,
    "lines": [
      "叡山電鉄叡山本線"
    ]
  },
  {
    "code": "c30c6df1",
    "name": "三室戸",
    "lat": 34.898976,
    "lon": 135.806339,
    "lines": [
      "京阪宇治線"
    ]
  },
  {
    "code": "15b5b7cd",
    "name": "三宮",
    "lat": 34.694004,
    "lon": 135.1937266667,
    "lines": [
      "ポートライナー",
      "神戸市営地下鉄山手線",
      "神戸高速東西線"
    ]
  },
  {
    "code": "50a244fa",
    "name": "三宮・花時計前",
    "lat": 34.691618,
    "lon": 135.195538,
    "lines": [
      "夢かもめ"
    ]
  },
  {
    "code": "b2468787",
    "name": "三山木",
    "lat": 34.798435,
    "lon": 135.785905,
    "lines": [
      "近鉄京都線"
    ]
  },
  {
    "code": "e8828307",
    "name": "三岡",
    "lat": 36.30415,
    "lon": 138.44846,
    "lines": [
      "小海線"
    ]
  },
  {
    "code": "d9dff73c",
    "name": "三峰口",
    "lat": 35.960075,
    "lon": 138.978706,
    "lines": [
      "秩父鉄道秩父本線"
    ]
  },
  {
    "code": "201cccab",
    "name": "三島",
    "lat": 35.1260995,
    "lon": 138.911251,
    "lines": [
      "JR東海道本線(熱海～浜松)",
      "伊豆箱根鉄道駿豆線"
    ]
  },
  {
    "code": "83417081",
    "name": "三島二日町",
    "lat": 35.111039,
    "lon": 138.926001,
    "lines": [
      "伊豆箱根鉄道駿豆線"
    ]
  },
  {
    "code": "37c35ba6",
    "name": "三島広小路",
    "lat": 35.119272,
    "lon": 138.911202,
    "lines": [
      "伊豆箱根鉄道駿豆線"
    ]
  },
  {
    "code": "3e37709e",
    "name": "三島田町",
    "lat": 35.116205,
    "lon": 138.918421,
    "lines": [
      "伊豆箱根鉄道駿豆線"
    ]
  },
  {
    "code": "a79d1a35",
    "name": "三崎口",
    "lat": 35.177515,
    "lon": 139.633207,
    "lines": [
      "京急久里浜線"
    ]
  },
  {
    "code": "6faa1efb",
    "name": "三川",
    "lat": 40.3266895,
    "lon": 140.59113,
    "lines": [
      "JR室蘭本線(苫小牧～岩見沢)",
      "森と水とロマンの鉄道"
    ]
  },
  {
    "code": "04c55eed",
    "name": "三戸",
    "lat": 40.395941,
    "lon": 141.27322,
    "lines": [
      "青い森鉄道線"
    ]
  },
  {
    "code": "b38d49ea",
    "name": "三才",
    "lat": 36.686674,
    "lon": 138.244079,
    "lines": [
      "JR飯山線",
      "北しなの線"
    ]
  },
  {
    "code": "933a3420",
    "name": "三方",
    "lat": 35.555282,
    "lon": 135.909259,
    "lines": [
      "JR小浜線"
    ]
  },
  {
    "code": "ef5c29bd",
    "name": "三日市",
    "lat": 34.880232,
    "lon": 136.562316,
    "lines": [
      "近鉄鈴鹿線"
    ]
  },
  {
    "code": "4a47a153",
    "name": "三日市町",
    "lat": 34.43672,
    "lon": 135.57134,
    "lines": [
      "南海高野線"
    ]
  },
  {
    "code": "74fff164",
    "name": "三日月",
    "lat": 34.984846,
    "lon": 134.435318,
    "lines": [
      "JR姫新線(姫路～佐用)"
    ]
  },
  {
    "code": "035d7ea6",
    "name": "三春",
    "lat": 37.449841,
    "lon": 140.479275,
    "lines": [
      "ゆうゆうあぶくまライン"
    ]
  },
  {
    "code": "6010bac6",
    "name": "三木",
    "lat": 34.797215,
    "lon": 134.9795405,
    "lines": [
      "三木鉄道三木線",
      "粟生線"
    ]
  },
  {
    "code": "1e2ba8c2",
    "name": "三木上の丸",
    "lat": 34.800013,
    "lon": 134.988814,
    "lines": [
      "粟生線"
    ]
  },
  {
    "code": "886bfbb6",
    "name": "三木里",
    "lat": 34.001454,
    "lon": 136.202518,
    "lines": [
      "JR紀勢本線"
    ]
  },
  {
    "code": "5fdbb355",
    "name": "三本松",
    "lat": 34.41505,
    "lon": 135.185152,
    "lines": [
      "JR高徳線",
      "近鉄大阪線"
    ]
  },
  {
    "code": "9fd375b7",
    "name": "三本松口",
    "lat": 35.446159,
    "lon": 133.323072,
    "lines": [
      "JR境線"
    ]
  },
  {
    "code": "0ace9dcb",
    "name": "三条",
    "lat": 35.489727,
    "lon": 136.13865475,
    "lines": [
      "JR信越本線(直江津～新潟)",
      "京阪本線",
      "京阪鴨東線",
      "琴電琴平線"
    ]
  },
  {
    "code": "513fc6f3",
    "name": "三条京阪",
    "lat": 35.009278,
    "lon": 135.773773,
    "lines": [
      "京都市営地下鉄東西線"
    ]
  },
  {
    "code": "2f46ee11",
    "name": "三松",
    "lat": 35.488767,
    "lon": 135.520561,
    "lines": [
      "JR小浜線"
    ]
  },
  {
    "code": "36d479d2",
    "name": "三枚橋",
    "lat": 36.313369,
    "lon": 139.354938,
    "lines": [
      "東武桐生線"
    ]
  },
  {
    "code": "86d9983d",
    "name": "三柿野",
    "lat": 35.400156,
    "lon": 136.876084,
    "lines": [
      "名鉄各務原線"
    ]
  },
  {
    "code": "04956243",
    "name": "三次",
    "lat": 34.802646,
    "lon": 132.855976,
    "lines": [
      "JR三江線",
      "JR福塩線",
      "JR芸備線"
    ]
  },
  {
    "code": "1e2e5ab1",
    "name": "三毛門",
    "lat": 33.614597,
    "lon": 131.15653,
    "lines": [
      "JR日豊本線(門司港～佐伯)"
    ]
  },
  {
    "code": "7289173c",
    "name": "三沢",
    "lat": 38.25382,
    "lon": 137.755891,
    "lines": [
      "十和田観光電鉄",
      "西鉄天神大牟田線",
      "青い森鉄道線"
    ]
  },
  {
    "code": "d7b3f0e0",
    "name": "三河一宮",
    "lat": 34.847911,
    "lon": 137.414549,
    "lines": [
      "JR飯田線(豊橋～天竜峡)"
    ]
  },
  {
    "code": "e55fae56",
    "name": "三河三谷",
    "lat": 34.818546,
    "lon": 137.247795,
    "lines": [
      "JR東海道本線(浜松～岐阜)"
    ]
  },
  {
    "code": "121115d4",
    "name": "三河上郷",
    "lat": 35.012384,
    "lon": 137.132756,
    "lines": [
      "愛知環状鉄道線"
    ]
  },
  {
    "code": "d6ba3088",
    "name": "三河八橋",
    "lat": 35.010913,
    "lon": 137.077147,
    "lines": [
      "名鉄三河線"
    ]
  },
  {
    "code": "71d5ed24",
    "name": "三河内",
    "lat": 33.150268,
    "lon": 129.82919,
    "lines": [
      "JR佐世保線"
    ]
  },
  {
    "code": "817d9bff",
    "name": "三河塩津",
    "lat": 34.825295,
    "lon": 137.201261,
    "lines": [
      "JR東海道本線(浜松～岐阜)"
    ]
  },
  {
    "code": "d0b9a036",
    "name": "三河大塚",
    "lat": 34.815744,
    "lon": 137.28287,
    "lines": [
      "JR東海道本線(浜松～岐阜)"
    ]
  },
  {
    "code": "c5817709",
    "name": "三河大野",
    "lat": 34.952038,
    "lon": 137.602987,
    "lines": [
      "JR飯田線(豊橋～天竜峡)"
    ]
  },
  {
    "code": "91e1b2f3",
    "name": "三河安城",
    "lat": 34.96968,
    "lon": 137.060918,
    "lines": [
      "JR東海道本線(浜松～岐阜)"
    ]
  },
  {
    "code": "af47f365",
    "name": "三河島",
    "lat": 35.733383,
    "lon": 139.777131,
    "lines": [
      "JR常磐線(上野～取手)"
    ]
  },
  {
    "code": "712686da",
    "name": "三河川合",
    "lat": 35.001722,
    "lon": 137.663991,
    "lines": [
      "JR飯田線(豊橋～天竜峡)"
    ]
  },
  {
    "code": "a8ecddc2",
    "name": "三河東郷",
    "lat": 34.912224,
    "lon": 137.527242,
    "lines": [
      "JR飯田線(豊橋～天竜峡)"
    ]
  },
  {
    "code": "4b3a177c",
    "name": "三河槙原",
    "lat": 34.988589,
    "lon": 137.621022,
    "lines": [
      "JR飯田線(豊橋～天竜峡)"
    ]
  },
  {
    "code": "3cf17eff",
    "name": "三河田原",
    "lat": 34.666875,
    "lon": 137.269172,
    "lines": [
      "豊橋鉄道渥美線"
    ]
  },
  {
    "code": "2b01370c",
    "name": "三河知立",
    "lat": 35.005722,
    "lon": 137.054972,
    "lines": [
      "名鉄三河線"
    ]
  },
  {
    "code": "331ddf9d",
    "name": "三河荻原",
    "lat": 34.806111,
    "lon": 137.067012,
    "lines": [
      "名鉄西尾線"
    ]
  },
  {
    "code": "ad741024",
    "name": "三河豊田",
    "lat": 35.0554,
    "lon": 137.150934,
    "lines": [
      "愛知環状鉄道線"
    ]
  },
  {
    "code": "8e1b3cb1",
    "name": "三河高浜",
    "lat": 34.930796,
    "lon": 136.989954,
    "lines": [
      "名鉄三河線"
    ]
  },
  {
    "code": "3a01c7b0",
    "name": "三河鳥羽",
    "lat": 34.793214,
    "lon": 137.104984,
    "lines": [
      "名鉄蒲郡線"
    ]
  },
  {
    "code": "1858efb5",
    "name": "三河鹿島",
    "lat": 34.813313,
    "lon": 137.189687,
    "lines": [
      "名鉄蒲郡線"
    ]
  },
  {
    "code": "71857ee6",
    "name": "三津",
    "lat": 33.863864,
    "lon": 132.720002,
    "lines": [
      "伊予鉄道高浜線"
    ]
  },
  {
    "code": "7e8e0720",
    "name": "三津浜",
    "lat": 33.86142,
    "lon": 132.728798,
    "lines": [
      "JR予讃線"
    ]
  },
  {
    "code": "e71a32c5",
    "name": "三浦",
    "lat": 35.141531,
    "lon": 134.078069,
    "lines": [
      "JR因美線"
    ]
  },
  {
    "code": "0687ba17",
    "name": "三浦海岸",
    "lat": 35.188084,
    "lon": 139.653138,
    "lines": [
      "京急久里浜線"
    ]
  },
  {
    "code": "83e0cfbd",
    "name": "三溝",
    "lat": 36.212863,
    "lon": 137.891469,
    "lines": [
      "上高地線"
    ]
  },
  {
    "code": "1f4afbe8",
    "name": "三滝",
    "lat": 34.417278,
    "lon": 132.447397,
    "lines": [
      "JR可部線"
    ]
  },
  {
    "code": "67e50188",
    "name": "三潴",
    "lat": 33.255961,
    "lon": 130.469386,
    "lines": [
      "西鉄天神大牟田線"
    ]
  },
  {
    "code": "ee861b3e",
    "name": "三瀬",
    "lat": 38.699448,
    "lon": 139.673643,
    "lines": [
      "JR羽越本線"
    ]
  },
  {
    "code": "4d889416",
    "name": "三瀬谷",
    "lat": 34.394823,
    "lon": 136.409183,
    "lines": [
      "JR紀勢本線"
    ]
  },
  {
    "code": "0b81ed94",
    "name": "三田",
    "lat": 35.192333,
    "lon": 137.037676,
    "lines": [
      "JR宝塚線",
      "三田線",
      "公園都市線",
      "都営三田線",
      "都営浅草線"
    ]
  },
  {
    "code": "bdc51fb6",
    "name": "三田本町",
    "lat": 34.881805,
    "lon": 135.229606,
    "lines": [
      "三田線",
      "公園都市線"
    ]
  },
  {
    "code": "8c146211",
    "name": "三石",
    "lat": 34.804507,
    "lon": 134.275416,
    "lines": [
      "JR山陽本線(姫路～岡山)"
    ]
  },
  {
    "code": "99564404",
    "name": "三縄",
    "lat": 34.006854,
    "lon": 133.7874,
    "lines": [
      "JR土讃線"
    ]
  },
  {
    "code": "57338ea2",
    "name": "三股",
    "lat": 31.733794,
    "lon": 131.119384,
    "lines": [
      "JR日豊本線(佐伯～鹿児島中央)"
    ]
  },
  {
    "code": "b8595842",
    "name": "三良坂",
    "lat": 34.766186,
    "lon": 132.957578,
    "lines": [
      "JR福塩線"
    ]
  },
  {
    "code": "1190f587",
    "name": "三苫",
    "lat": 33.702081,
    "lon": 130.422521,
    "lines": [
      "西鉄貝塚線"
    ]
  },
  {
    "code": "a86fcca9",
    "name": "三菱自工前",
    "lat": 34.522906,
    "lon": 133.734197,
    "lines": [
      "水島本線"
    ]
  },
  {
    "code": "797bf8df",
    "name": "三見",
    "lat": 34.397263,
    "lon": 131.330142,
    "lines": [
      "JR山陰本線(益田～下関)"
    ]
  },
  {
    "code": "216cc552",
    "name": "三角",
    "lat": 32.607616,
    "lon": 130.469872,
    "lines": [
      "三角線（あまくさみすみ線）"
    ]
  },
  {
    "code": "643fb1fb",
    "name": "三谷",
    "lat": 34.478919,
    "lon": 132.6219285,
    "lines": [
      "JR山口線",
      "井原線"
    ]
  },
  {
    "code": "8db7388a",
    "name": "三越前",
    "lat": 35.6860045,
    "lon": 139.7733705,
    "lines": [
      "東京メトロ半蔵門線",
      "東京メトロ銀座線"
    ]
  },
  {
    "code": "6afb0893",
    "name": "三軒茶屋",
    "lat": 35.643716,
    "lon": 139.670156,
    "lines": [
      "東急世田谷線",
      "東急田園都市線"
    ]
  },
  {
    "code": "f28f8ba8",
    "name": "三輪",
    "lat": 34.527138,
    "lon": 135.848435,
    "lines": [
      "万葉まほろば線"
    ]
  },
  {
    "code": "cf34a263",
    "name": "三輪崎",
    "lat": 33.689554,
    "lon": 135.984906,
    "lines": [
      "きのくに線"
    ]
  },
  {
    "code": "866c4120",
    "name": "三農校前",
    "lat": 40.636861,
    "lon": 141.267245,
    "lines": [
      "十和田観光電鉄"
    ]
  },
  {
    "code": "4c178e3d",
    "name": "三郷",
    "lat": 35.2167096667,
    "lon": 137.542059,
    "lines": [
      "JR武蔵野線",
      "名鉄瀬戸線",
      "大和路線"
    ]
  },
  {
    "code": "047a8f8e",
    "name": "三郷中央",
    "lat": 35.824514,
    "lon": 139.878344,
    "lines": [
      "つくばエクスプレス"
    ]
  },
  {
    "code": "50716909",
    "name": "三里",
    "lat": 35.107062,
    "lon": 136.538651,
    "lines": [
      "三岐鉄道三岐線"
    ]
  },
  {
    "code": "e86ec8de",
    "name": "三里木",
    "lat": 32.861634,
    "lon": 130.796321,
    "lines": [
      "阿蘇高原線"
    ]
  },
  {
    "code": "5177334a",
    "name": "三重町",
    "lat": 32.983616,
    "lon": 131.584389,
    "lines": [
      "阿蘇高原線"
    ]
  },
  {
    "code": "895743e5",
    "name": "三野瀬",
    "lat": 34.167771,
    "lon": 136.282519,
    "lines": [
      "JR紀勢本線"
    ]
  },
  {
    "code": "34c784e2",
    "name": "三門",
    "lat": 35.282377,
    "lon": 140.391567,
    "lines": [
      "JR外房線"
    ]
  },
  {
    "code": "571bf674",
    "name": "三間坂",
    "lat": 33.194722,
    "lon": 129.947798,
    "lines": [
      "JR佐世保線"
    ]
  },
  {
    "code": "c7d3270f",
    "name": "三関",
    "lat": 39.110196,
    "lon": 140.483796,
    "lines": [
      "JR奥羽本線(新庄～青森)"
    ]
  },
  {
    "code": "d3c15d43",
    "name": "三陸",
    "lat": 39.117194,
    "lon": 141.809836,
    "lines": [
      "三陸鉄道リアス線"
    ]
  },
  {
    "code": "915ef888",
    "name": "三雲",
    "lat": 34.983131,
    "lon": 136.117777,
    "lines": [
      "JR草津線"
    ]
  },
  {
    "code": "51ea2198",
    "name": "三鷹",
    "lat": 35.702683,
    "lon": 139.560325,
    "lines": [
      "JR中央・総武線",
      "JR中央本線(東京～塩尻)",
      "JR中央線(快速)",
      "JR成田エクスプレス"
    ]
  },
  {
    "code": "43052dde",
    "name": "三鷹台",
    "lat": 35.692046,
    "lon": 139.589298,
    "lines": [
      "京王井の頭線"
    ]
  },
  {
    "code": "36004e8d",
    "name": "上の町",
    "lat": 34.490944,
    "lon": 133.815233,
    "lines": [
      "瀬戸大橋線"
    ]
  },
  {
    "code": "3f0a8ebf",
    "name": "上ゲ",
    "lat": 34.858389,
    "lon": 136.916403,
    "lines": [
      "名鉄河和線"
    ]
  },
  {
    "code": "50b2565f",
    "name": "上ノ国",
    "lat": 41.805567,
    "lon": 140.124106,
    "lines": [
      "JR江差線"
    ]
  },
  {
    "code": "ee7bc97f",
    "name": "上ノ太子",
    "lat": 34.532974,
    "lon": 135.637634,
    "lines": [
      "近鉄南大阪線"
    ]
  },
  {
    "code": "969d6337",
    "name": "上ノ庄",
    "lat": 34.597996,
    "lon": 136.499273,
    "lines": [
      "JR名松線"
    ]
  },
  {
    "code": "67ede39e",
    "name": "上一万",
    "lat": 33.846737,
    "lon": 132.775502,
    "lines": [
      "伊予鉄道市駅線（３系統）",
      "伊予鉄道松山駅前線（５系統）",
      "伊予鉄道環状線（１系統）",
      "伊予鉄道環状線（２系統）"
    ]
  },
  {
    "code": "0631500e",
    "name": "上万場",
    "lat": 35.844429,
    "lon": 136.876707,
    "lines": [
      "長良川鉄道越美南線"
    ]
  },
  {
    "code": "e7669089",
    "name": "上三依塩原温泉口",
    "lat": 37.014461,
    "lon": 139.727168,
    "lines": [
      "ほっとスパ・ライン"
    ]
  },
  {
    "code": "a7f94571",
    "name": "上三田",
    "lat": 34.538646,
    "lon": 132.64389,
    "lines": [
      "JR芸備線"
    ]
  },
  {
    "code": "741d5808",
    "name": "上三緒",
    "lat": 33.622254,
    "lon": 130.713824,
    "lines": [
      "JR後藤寺線"
    ]
  },
  {
    "code": "21c5d8af",
    "name": "上下",
    "lat": 34.694932,
    "lon": 133.117625,
    "lines": [
      "JR福塩線"
    ]
  },
  {
    "code": "2812afac",
    "name": "上下浜",
    "lat": 37.252178,
    "lon": 138.361569,
    "lines": [
      "JR信越本線(直江津～新潟)"
    ]
  },
  {
    "code": "617be834",
    "name": "上中",
    "lat": 35.463638,
    "lon": 135.855728,
    "lines": [
      "JR小浜線"
    ]
  },
  {
    "code": "ee7de587",
    "name": "上中里",
    "lat": 35.74728,
    "lon": 139.745769,
    "lines": [
      "JR京浜東北線"
    ]
  },
  {
    "code": "023f1495",
    "name": "上丸渕",
    "lat": 35.233809,
    "lon": 136.732521,
    "lines": [
      "名鉄尾西線"
    ]
  },
  {
    "code": "ef9cb1c5",
    "name": "上之郷",
    "lat": 34.379334,
    "lon": 136.811422,
    "lines": [
      "近鉄志摩線"
    ]
  },
  {
    "code": "30c7e343",
    "name": "上二田",
    "lat": 39.869089,
    "lon": 140.00409,
    "lines": [
      "JR男鹿線"
    ]
  },
  {
    "code": "6fdb4b52",
    "name": "上井草",
    "lat": 35.725326,
    "lon": 139.602937,
    "lines": [
      "西武新宿線"
    ]
  },
  {
    "code": "a89d7746",
    "name": "上今井",
    "lat": 36.753947,
    "lon": 138.319478,
    "lines": [
      "JR飯山線"
    ]
  },
  {
    "code": "c2ae0f9f",
    "name": "上今市",
    "lat": 36.727962,
    "lon": 139.681026,
    "lines": [
      "東武日光線"
    ]
  },
  {
    "code": "1f13adfd",
    "name": "上伊万里",
    "lat": 33.270066,
    "lon": 129.892515,
    "lines": [
      "JR筑肥線(西唐津～伊万里)"
    ]
  },
  {
    "code": "c8c69e3f",
    "name": "上伊田",
    "lat": 33.648079,
    "lon": 130.83017,
    "lines": [
      "田川線"
    ]
  },
  {
    "code": "ffe2b5ed",
    "name": "上伊集院",
    "lat": 31.593837,
    "lon": 130.459468,
    "lines": [
      "JR鹿児島本線(川内～鹿児島)"
    ]
  },
  {
    "code": "d14e8774",
    "name": "上保原",
    "lat": 37.809628,
    "lon": 140.542749,
    "lines": [
      "阿武隈急行線"
    ]
  },
  {
    "code": "b585e657",
    "name": "上八木",
    "lat": 34.489805,
    "lon": 132.506037,
    "lines": [
      "JR可部線"
    ]
  },
  {
    "code": "b4cee1fc",
    "name": "上利別",
    "lat": 43.351862,
    "lon": 143.605326,
    "lines": [
      "ふるさと銀河線"
    ]
  },
  {
    "code": "f1bbb59b",
    "name": "上前津",
    "lat": 35.157477,
    "lon": 136.906815,
    "lines": [
      "名古屋市営地下鉄名城線",
      "名古屋市営地下鉄鶴舞線"
    ]
  },
  {
    "code": "11a702c8",
    "name": "上北台",
    "lat": 35.745824,
    "lon": 139.415822,
    "lines": [
      "多摩モノレール"
    ]
  },
  {
    "code": "3ef3836b",
    "name": "上北沢",
    "lat": 35.668857,
    "lon": 139.62329,
    "lines": [
      "京王線"
    ]
  },
  {
    "code": "a863da96",
    "name": "上北町",
    "lat": 40.732993,
    "lon": 141.264801,
    "lines": [
      "青い森鉄道線"
    ]
  },
  {
    "code": "123a9bac",
    "name": "上厚内",
    "lat": 42.831881,
    "lon": 143.749788,
    "lines": [
      "JR根室本線(新得～釧路)"
    ]
  },
  {
    "code": "12ae2505",
    "name": "上古沢",
    "lat": 34.257362,
    "lon": 135.548025,
    "lines": [
      "南海高野線"
    ]
  },
  {
    "code": "432567d8",
    "name": "上呂",
    "lat": 35.910717,
    "lon": 137.204562,
    "lines": [
      "JR高山本線"
    ]
  },
  {
    "code": "962c5e92",
    "name": "上嘉川",
    "lat": 34.073407,
    "lon": 131.378726,
    "lines": [
      "JR宇部線"
    ]
  },
  {
    "code": "68a360a2",
    "name": "上堀",
    "lat": 36.65338,
    "lon": 137.230127,
    "lines": [
      "富山地鉄不二越・上滝線"
    ]
  },
  {
    "code": "d21a1455",
    "name": "上塩屋",
    "lat": 31.534762,
    "lon": 130.528811,
    "lines": [
      "鹿児島市電１系統"
    ]
  },
  {
    "code": "6c788b44",
    "name": "上境",
    "lat": 36.937916,
    "lon": 138.419151,
    "lines": [
      "JR飯山線"
    ]
  },
  {
    "code": "0d3cf434",
    "name": "上夜久野",
    "lat": 35.34182,
    "lon": 134.931718,
    "lines": [
      "JR山陰本線(園部～豊岡)"
    ]
  },
  {
    "code": "0af73560",
    "name": "上大井",
    "lat": 35.321883,
    "lon": 139.163508,
    "lines": [
      "JR御殿場線"
    ]
  },
  {
    "code": "318629af",
    "name": "上大岡",
    "lat": 35.4090815,
    "lon": 139.5962265,
    "lines": [
      "ブルーライン",
      "京急本線"
    ]
  },
  {
    "code": "615712b9",
    "name": "上大月",
    "lat": 35.609341,
    "lon": 138.938128,
    "lines": [
      "富士急行線"
    ]
  },
  {
    "code": "7179036f",
    "name": "上宇和",
    "lat": 33.379979,
    "lon": 132.501337,
    "lines": [
      "JR予讃・内子線"
    ]
  },
  {
    "code": "117d0afb",
    "name": "上安",
    "lat": 34.475735,
    "lon": 132.444662,
    "lines": [
      "アストラムライン"
    ]
  },
  {
    "code": "2f9fa031",
    "name": "上富良野",
    "lat": 43.464046,
    "lon": 142.468761,
    "lines": [
      "JR富良野線"
    ]
  },
  {
    "code": "530a4b54",
    "name": "上小川",
    "lat": 36.719216,
    "lon": 140.378604,
    "lines": [
      "JR水郡線"
    ]
  },
  {
    "code": "bd7d763c",
    "name": "上小田井",
    "lat": 35.223482,
    "lon": 136.876941,
    "lines": [
      "名古屋市営地下鉄鶴舞線",
      "名鉄犬山線"
    ]
  },
  {
    "code": "93f56e9d",
    "name": "上尾",
    "lat": 35.973522,
    "lon": 139.588434,
    "lines": [
      "JR高崎線"
    ]
  },
  {
    "code": "73a1fa5f",
    "name": "上尾幌",
    "lat": 43.032893,
    "lon": 144.61239,
    "lines": [
      "花咲線"
    ]
  },
  {
    "code": "717b347c",
    "name": "上山口",
    "lat": 34.18239,
    "lon": 131.484742,
    "lines": [
      "JR山口線"
    ]
  },
  {
    "code": "3e00dfd7",
    "name": "上岡",
    "lat": 32.956302,
    "lon": 131.8616,
    "lines": [
      "JR日豊本線(佐伯～鹿児島中央)"
    ]
  },
  {
    "code": "0b028188",
    "name": "上島",
    "lat": 34.741568,
    "lon": 137.745462,
    "lines": [
      "遠州鉄道鉄道線"
    ]
  },
  {
    "code": "c2e13238",
    "name": "上川",
    "lat": 43.848508,
    "lon": 142.766895,
    "lines": [
      "JR石北本線"
    ]
  },
  {
    "code": "48b3652a",
    "name": "上川内",
    "lat": 31.83537,
    "lon": 130.292406,
    "lines": [
      "肥薩おれんじ鉄道線"
    ]
  },
  {
    "code": "6de42aab",
    "name": "上川口",
    "lat": 35.329504,
    "lon": 135.073284,
    "lines": [
      "JR山陰本線(園部～豊岡)"
    ]
  },
  {
    "code": "b39c2c6a",
    "name": "上川立",
    "lat": 34.725373,
    "lon": 132.784873,
    "lines": [
      "JR芸備線"
    ]
  },
  {
    "code": "64475f2b",
    "name": "上州一ノ宮",
    "lat": 36.253053,
    "lon": 138.863924,
    "lines": [
      "上信電鉄"
    ]
  },
  {
    "code": "670621f3",
    "name": "上州七日市",
    "lat": 36.258666,
    "lon": 138.874536,
    "lines": [
      "上信電鉄"
    ]
  },
  {
    "code": "c33206b5",
    "name": "上州富岡",
    "lat": 36.26046,
    "lon": 138.891851,
    "lines": [
      "上信電鉄"
    ]
  },
  {
    "code": "d8bccb22",
    "name": "上州新屋",
    "lat": 36.256036,
    "lon": 138.951776,
    "lines": [
      "上信電鉄"
    ]
  },
  {
    "code": "5f17cfdd",
    "name": "上州福島",
    "lat": 36.256408,
    "lon": 138.92944,
    "lines": [
      "上信電鉄"
    ]
  },
  {
    "code": "771280b1",
    "name": "上市",
    "lat": 36.704463,
    "lon": 137.357603,
    "lines": [
      "富山地鉄本線"
    ]
  },
  {
    "code": "ff11034a",
    "name": "上市場",
    "lat": 35.050202,
    "lon": 137.752364,
    "lines": [
      "JR飯田線(豊橋～天竜峡)"
    ]
  },
  {
    "code": "d267131e",
    "name": "上常呂",
    "lat": 43.757543,
    "lon": 143.836343,
    "lines": [
      "ふるさと銀河線"
    ]
  },
  {
    "code": "9891a93d",
    "name": "上幌向",
    "lat": 43.18183,
    "lon": 141.715391,
    "lines": [
      "JR函館本線(小樽～旭川)"
    ]
  },
  {
    "code": "b6a496ad",
    "name": "上幌延",
    "lat": 44.985787,
    "lon": 141.880905,
    "lines": [
      "JR宗谷本線"
    ]
  },
  {
    "code": "8dd3762a",
    "name": "上強羅",
    "lat": 35.247306,
    "lon": 139.038056,
    "lines": [
      "箱根登山ケーブルカー"
    ]
  },
  {
    "code": "368a9fef",
    "name": "上戸",
    "lat": 37.487848,
    "lon": 140.163538,
    "lines": [
      "JR磐越西線(郡山～会津若松)"
    ]
  },
  {
    "code": "c97af9ce",
    "name": "上戸手",
    "lat": 34.5515,
    "lon": 133.282137,
    "lines": [
      "JR福塩線"
    ]
  },
  {
    "code": "689a1dbd",
    "name": "上所",
    "lat": 37.9070611355,
    "lon": 139.0452050259,
    "lines": [
      "JR越後線"
    ]
  },
  {
    "code": "c73b5c17",
    "name": "上挙母",
    "lat": 35.071854,
    "lon": 137.154453,
    "lines": [
      "名鉄三河線"
    ]
  },
  {
    "code": "a01c32dd",
    "name": "上新庄",
    "lat": 34.750873,
    "lon": 135.533114,
    "lines": [
      "阪急京都本線"
    ]
  },
  {
    "code": "6568c488",
    "name": "上星川",
    "lat": 35.467694,
    "lon": 139.580078,
    "lines": [
      "相鉄本線"
    ]
  },
  {
    "code": "86d2c451",
    "name": "上月",
    "lat": 34.983425,
    "lon": 134.32251,
    "lines": [
      "JR姫新線(佐用～新見)"
    ]
  },
  {
    "code": "7b4fd457",
    "name": "上有住",
    "lat": 39.242013,
    "lon": 141.681522,
    "lines": [
      "銀河ドリームライン釜石線"
    ]
  },
  {
    "code": "802ddcad",
    "name": "上有田",
    "lat": 33.190286,
    "lon": 129.905404,
    "lines": [
      "JR佐世保線"
    ]
  },
  {
    "code": "203e987d",
    "name": "上末",
    "lat": 35.298338,
    "lon": 136.960133,
    "lines": [
      "ピーチライナー"
    ]
  },
  {
    "code": "aca529be",
    "name": "上本町",
    "lat": 36.686282,
    "lon": 137.215762,
    "lines": [
      "富山地鉄市内線【１・２系統】"
    ]
  },
  {
    "code": "84525224",
    "name": "上本郷",
    "lat": 35.789524,
    "lon": 139.916031,
    "lines": [
      "京成松戸線"
    ]
  },
  {
    "code": "4c6931d4",
    "name": "上杉",
    "lat": 40.146533,
    "lon": 140.349495,
    "lines": [
      "秋田内陸線"
    ]
  },
  {
    "code": "37a5aadc",
    "name": "上条",
    "lat": 37.0482385,
    "lon": 138.7291585,
    "lines": [
      "JR只見線",
      "長野電鉄長野線"
    ]
  },
  {
    "code": "3025c567",
    "name": "上松",
    "lat": 35.784068,
    "lon": 137.693283,
    "lines": [
      "JR中央本線(名古屋～塩尻)"
    ]
  },
  {
    "code": "0adad245",
    "name": "上松川",
    "lat": 37.783619,
    "lon": 140.441011,
    "lines": [
      "福島交通飯坂線"
    ]
  },
  {
    "code": "975e0641",
    "name": "上板橋",
    "lat": 35.763596,
    "lon": 139.67641,
    "lines": [
      "東武東上線"
    ]
  },
  {
    "code": "5bfe1f08",
    "name": "上林",
    "lat": 34.694998,
    "lon": 136.161219,
    "lines": [
      "伊賀鉄道伊賀線",
      "近鉄伊賀線"
    ]
  },
  {
    "code": "5d704854",
    "name": "上枝",
    "lat": 36.18095,
    "lon": 137.245789,
    "lines": [
      "JR高山本線"
    ]
  },
  {
    "code": "6478adce",
    "name": "上栄町",
    "lat": 35.00515,
    "lon": 135.860152,
    "lines": [
      "京阪京津線"
    ]
  },
  {
    "code": "ddc62816",
    "name": "上桂",
    "lat": 34.990201,
    "lon": 135.696069,
    "lines": [
      "阪急嵐山線"
    ]
  },
  {
    "code": "e22bb82c",
    "name": "上桑名川",
    "lat": 36.962559,
    "lon": 138.441204,
    "lines": [
      "JR飯山線"
    ]
  },
  {
    "code": "a2b0ad6d",
    "name": "上桧木内",
    "lat": 39.815858,
    "lon": 140.584937,
    "lines": [
      "秋田内陸線"
    ]
  },
  {
    "code": "57217d62",
    "name": "上横須賀",
    "lat": 34.829941,
    "lon": 137.071883,
    "lines": [
      "名鉄西尾線"
    ]
  },
  {
    "code": "c42aa535",
    "name": "上永谷",
    "lat": 35.401391,
    "lon": 139.572713,
    "lines": [
      "ブルーライン"
    ]
  },
  {
    "code": "d61431df",
    "name": "上沢",
    "lat": 34.673251,
    "lon": 135.158331,
    "lines": [
      "神戸市営地下鉄山手線"
    ]
  },
  {
    "code": "a0866891",
    "name": "上泉",
    "lat": 36.39419,
    "lon": 139.106598,
    "lines": [
      "上毛電気鉄道上毛線"
    ]
  },
  {
    "code": "ff7b4352",
    "name": "上浜",
    "lat": 39.164738,
    "lon": 139.902823,
    "lines": [
      "JR羽越本線"
    ]
  },
  {
    "code": "8c094024",
    "name": "上浦",
    "lat": 33.398681,
    "lon": 130.637115,
    "lines": [
      "西鉄甘木線"
    ]
  },
  {
    "code": "15468388",
    "name": "上涌谷",
    "lat": 38.549194,
    "lon": 141.099473,
    "lines": [
      "JR石巻線"
    ]
  },
  {
    "code": "bc1b3669",
    "name": "上深川",
    "lat": 34.47591,
    "lon": 132.562619,
    "lines": [
      "JR芸備線"
    ]
  },
  {
    "code": "5bf047cb",
    "name": "上湯沢",
    "lat": 39.134221,
    "lon": 140.485262,
    "lines": [
      "JR奥羽本線(新庄～青森)"
    ]
  },
  {
    "code": "87bd35d7",
    "name": "上溝",
    "lat": 35.557623,
    "lon": 139.36315,
    "lines": [
      "JR相模線"
    ]
  },
  {
    "code": "db9545ac",
    "name": "上滝",
    "lat": 36.609622,
    "lon": 137.295564,
    "lines": [
      "富山地鉄不二越・上滝線"
    ]
  },
  {
    "code": "d8d32628",
    "name": "上熊本",
    "lat": 32.8176871567,
    "lon": 130.6993439,
    "lines": [
      "JR鹿児島本線(博多～八代)",
      "熊本市電Ｂ系統",
      "熊本電鉄上熊本線"
    ]
  },
  {
    "code": "f4bec39d",
    "name": "上熊谷",
    "lat": 36.142657,
    "lon": 139.38134,
    "lines": [
      "秩父鉄道秩父本線"
    ]
  },
  {
    "code": "655da859",
    "name": "上片桐",
    "lat": 35.617583,
    "lon": 137.904064,
    "lines": [
      "JR飯田線(天竜峡～辰野)"
    ]
  },
  {
    "code": "7a9834d2",
    "name": "上牧",
    "lat": 35.803817,
    "lon": 137.323081,
    "lines": [
      "JR上越線",
      "阪急京都本線"
    ]
  },
  {
    "code": "0a9c4e44",
    "name": "上狛",
    "lat": 34.750447,
    "lon": 135.821225,
    "lines": [
      "奈良線"
    ]
  },
  {
    "code": "2e483652",
    "name": "上田",
    "lat": 36.396635,
    "lon": 138.249059,
    "lines": [
      "しなの鉄道線",
      "上田電鉄別所線"
    ]
  },
  {
    "code": "e5bde36c",
    "name": "上田原",
    "lat": 36.390488,
    "lon": 138.221439,
    "lines": [
      "上田電鉄別所線"
    ]
  },
  {
    "code": "b3e53175",
    "name": "上田浦",
    "lat": 32.392952,
    "lon": 130.5186,
    "lines": [
      "肥薩おれんじ鉄道線"
    ]
  },
  {
    "code": "d4fb1f3a",
    "name": "上町",
    "lat": 35.643656,
    "lon": 139.646276,
    "lines": [
      "東急世田谷線"
    ]
  },
  {
    "code": "291dae09",
    "name": "上町一丁目",
    "lat": 33.557489,
    "lon": 133.525107,
    "lines": [
      "伊野線"
    ]
  },
  {
    "code": "7f44ea1d",
    "name": "上町二丁目",
    "lat": 33.557382,
    "lon": 133.522897,
    "lines": [
      "伊野線"
    ]
  },
  {
    "code": "0996fa90",
    "name": "上町五丁目",
    "lat": 33.557275,
    "lon": 133.516674,
    "lines": [
      "伊野線"
    ]
  },
  {
    "code": "31c1cf6a",
    "name": "上町四丁目",
    "lat": 33.557382,
    "lon": 133.519657,
    "lines": [
      "伊野線"
    ]
  },
  {
    "code": "fa80b493",
    "name": "上白滝",
    "lat": 43.876501,
    "lon": 143.1444,
    "lines": [
      "JR石北本線"
    ]
  },
  {
    "code": "a6d36ce3",
    "name": "上盛岡",
    "lat": 39.71146,
    "lon": 141.147937,
    "lines": [
      "JR山田線"
    ]
  },
  {
    "code": "ee389bcc",
    "name": "上相浦",
    "lat": 33.195205,
    "lon": 129.670453,
    "lines": [
      "西九州線(伊万里～佐世保)"
    ]
  },
  {
    "code": "591e1547",
    "name": "上石神井",
    "lat": 35.726189,
    "lon": 139.592266,
    "lines": [
      "西武新宿線"
    ]
  },
  {
    "code": "7e3a7257",
    "name": "上石見",
    "lat": 35.112622,
    "lon": 133.351273,
    "lines": [
      "JR伯備線"
    ]
  },
  {
    "code": "c0796e17",
    "name": "上磯",
    "lat": 41.81956,
    "lon": 140.640599,
    "lines": [
      "道南いさりび鉄道線"
    ]
  },
  {
    "code": "d05d7146",
    "name": "上社",
    "lat": 35.173656,
    "lon": 137.007081,
    "lines": [
      "名古屋市営地下鉄東山線"
    ]
  },
  {
    "code": "6884daf2",
    "name": "上神梅",
    "lat": 36.470053,
    "lon": 139.257696,
    "lines": [
      "わたらせ渓谷線"
    ]
  },
  {
    "code": "e2623a57",
    "name": "上福岡",
    "lat": 35.873855,
    "lon": 139.511782,
    "lines": [
      "東武東上線"
    ]
  },
  {
    "code": "5e7cd1a0",
    "name": "上穂波",
    "lat": 33.566909,
    "lon": 130.645151,
    "lines": [
      "原田線"
    ]
  },
  {
    "code": "065aea5b",
    "name": "上米内",
    "lat": 39.743855,
    "lon": 141.203825,
    "lines": [
      "JR山田線"
    ]
  },
  {
    "code": "e9dc1589",
    "name": "上総一ノ宮",
    "lat": 35.373401,
    "lon": 140.365138,
    "lines": [
      "JR外房線"
    ]
  },
  {
    "code": "7289ea8f",
    "name": "上総三又",
    "lat": 35.46592,
    "lon": 140.12672,
    "lines": [
      "小湊鉄道線"
    ]
  },
  {
    "code": "52469e30",
    "name": "上総中川",
    "lat": 35.282763,
    "lon": 140.280636,
    "lines": [
      "いすみ線"
    ]
  },
  {
    "code": "3df513e6",
    "name": "上総中野",
    "lat": 35.250051,
    "lon": 140.199571,
    "lines": [
      "いすみ線",
      "小湊鉄道線"
    ]
  },
  {
    "code": "e6d47413",
    "name": "上総久保",
    "lat": 35.367481,
    "lon": 140.154438,
    "lines": [
      "小湊鉄道線"
    ]
  },
  {
    "code": "39a5bd71",
    "name": "上総亀山",
    "lat": 35.233153,
    "lon": 140.089479,
    "lines": [
      "JR久留里線"
    ]
  },
  {
    "code": "b431bc6a",
    "name": "上総大久保",
    "lat": 35.283367,
    "lon": 140.145924,
    "lines": [
      "小湊鉄道線"
    ]
  },
  {
    "code": "675d6d49",
    "name": "上総山田",
    "lat": 35.454105,
    "lon": 140.126128,
    "lines": [
      "小湊鉄道線"
    ]
  },
  {
    "code": "2931f899",
    "name": "上総川間",
    "lat": 35.388047,
    "lon": 140.150968,
    "lines": [
      "小湊鉄道線"
    ]
  },
  {
    "code": "7666d30b",
    "name": "上総村上",
    "lat": 35.496171,
    "lon": 140.100355,
    "lines": [
      "小湊鉄道線"
    ]
  },
  {
    "code": "82e4b071",
    "name": "上総東",
    "lat": 35.263313,
    "lon": 140.344974,
    "lines": [
      "いすみ線"
    ]
  },
  {
    "code": "d98f5b0b",
    "name": "上総松丘",
    "lat": 35.258226,
    "lon": 140.064046,
    "lines": [
      "JR久留里線"
    ]
  },
  {
    "code": "dfcc8aed",
    "name": "上総清川",
    "lat": 35.390981,
    "lon": 139.965612,
    "lines": [
      "JR久留里線"
    ]
  },
  {
    "code": "ccd9bae6",
    "name": "上総湊",
    "lat": 35.221855,
    "lon": 139.871016,
    "lines": [
      "JR内房線"
    ]
  },
  {
    "code": "ab706065",
    "name": "上総牛久",
    "lat": 35.400213,
    "lon": 140.142255,
    "lines": [
      "小湊鉄道線"
    ]
  },
  {
    "code": "a4c616c3",
    "name": "上総興津",
    "lat": 35.137146,
    "lon": 140.250487,
    "lines": [
      "JR外房線"
    ]
  },
  {
    "code": "947418ec",
    "name": "上総鶴舞",
    "lat": 35.381346,
    "lon": 140.165006,
    "lines": [
      "小湊鉄道線"
    ]
  },
  {
    "code": "0232dc43",
    "name": "上臼杵",
    "lat": 33.112499,
    "lon": 131.793015,
    "lines": [
      "JR日豊本線(門司港～佐伯)"
    ]
  },
  {
    "code": "6009c851",
    "name": "上芦別",
    "lat": 43.48871,
    "lon": 142.210855,
    "lines": [
      "JR根室本線(滝川～富良野)"
    ]
  },
  {
    "code": "5da4d10b",
    "name": "上菅",
    "lat": 35.193886,
    "lon": 133.341813,
    "lines": [
      "JR伯備線"
    ]
  },
  {
    "code": "c4fdf6c2",
    "name": "上菅谷",
    "lat": 36.455378,
    "lon": 140.492659,
    "lines": [
      "JR水郡線"
    ]
  },
  {
    "code": "46132d96",
    "name": "上諏訪",
    "lat": 36.046618,
    "lon": 138.116306,
    "lines": [
      "JR中央本線(東京～塩尻)"
    ]
  },
  {
    "code": "75452e76",
    "name": "上諸江",
    "lat": 36.590835,
    "lon": 136.648941,
    "lines": [
      "北陸鉄道浅野川線"
    ]
  },
  {
    "code": "cf498dd8",
    "name": "上豊田",
    "lat": 35.116168,
    "lon": 137.15535,
    "lines": [
      "名鉄豊田線"
    ]
  },
  {
    "code": "e5115c41",
    "name": "上越国際スキー場前",
    "lat": 37.028755,
    "lon": 138.827973,
    "lines": [
      "JR上越線"
    ]
  },
  {
    "code": "59a29814",
    "name": "上越妙高",
    "lat": 37.081813,
    "lon": 138.249476,
    "lines": [
      "妙高はねうまライン"
    ]
  },
  {
    "code": "24927656",
    "name": "上道",
    "lat": 35.115307,
    "lon": 133.6256585,
    "lines": [
      "JR境線",
      "JR山陽本線(姫路～岡山)"
    ]
  },
  {
    "code": "6bb97679",
    "name": "上郡",
    "lat": 34.866129,
    "lon": 134.353582,
    "lines": [
      "JR山陽本線(姫路～岡山)",
      "智頭急行智頭線"
    ]
  },
  {
    "code": "84b9b52e",
    "name": "上郷",
    "lat": 34.116333,
    "lon": 131.40179,
    "lines": [
      "JR山口線"
    ]
  },
  {
    "code": "fe584bd0",
    "name": "上野",
    "lat": 35.713213,
    "lon": 139.77706275,
    "lines": [
      "JR京浜東北線",
      "JR山手線",
      "JR常磐線(上野～取手)",
      "JR高崎線",
      "上野東京ライン",
      "宇都宮線",
      "東京メトロ日比谷線",
      "東京メトロ銀座線"
    ]
  },
  {
    "code": "618da1ea",
    "name": "上野原",
    "lat": 35.618747,
    "lon": 139.115787,
    "lines": [
      "JR中央本線(東京～塩尻)"
    ]
  },
  {
    "code": "816d906f",
    "name": "上野尻",
    "lat": 37.625041,
    "lon": 139.633869,
    "lines": [
      "森と水とロマンの鉄道"
    ]
  },
  {
    "code": "916b7aba",
    "name": "上野市",
    "lat": 34.767654,
    "lon": 136.129419,
    "lines": [
      "伊賀鉄道伊賀線",
      "近鉄伊賀線"
    ]
  },
  {
    "code": "4f8f7752",
    "name": "上野幌",
    "lat": 43.016177,
    "lon": 141.487317,
    "lines": [
      "JR千歳線"
    ]
  },
  {
    "code": "ab4e014d",
    "name": "上野広小路",
    "lat": 35.70768,
    "lon": 139.772877,
    "lines": [
      "東京メトロ銀座線"
    ]
  },
  {
    "code": "0ef2520c",
    "name": "上野御徒町",
    "lat": 35.707893,
    "lon": 139.774332,
    "lines": [
      "都営大江戸線"
    ]
  },
  {
    "code": "981cc40a",
    "name": "上野毛",
    "lat": 35.611957,
    "lon": 139.638917,
    "lines": [
      "東急大井町線"
    ]
  },
  {
    "code": "dd88df19",
    "name": "上野目",
    "lat": 38.680563,
    "lon": 140.859342,
    "lines": [
      "奥の細道湯けむりライン"
    ]
  },
  {
    "code": "6c3386c6",
    "name": "上野芝",
    "lat": 34.549484,
    "lon": 135.478026,
    "lines": [
      "阪和線(天王寺～和歌山)"
    ]
  },
  {
    "code": "3ecea0b6",
    "name": "上野部",
    "lat": 34.847442,
    "lon": 137.830058,
    "lines": [
      "天竜浜名湖線"
    ]
  },
  {
    "code": "0fdcc953",
    "name": "上野間",
    "lat": 34.807284,
    "lon": 136.866854,
    "lines": [
      "名鉄知多新線"
    ]
  },
  {
    "code": "24b7df04",
    "name": "上金田",
    "lat": 33.672435,
    "lon": 130.789172,
    "lines": [
      "伊田線"
    ]
  },
  {
    "code": "03fd7420",
    "name": "上長瀞",
    "lat": 36.086169,
    "lon": 139.11319,
    "lines": [
      "秩父鉄道秩父本線"
    ]
  },
  {
    "code": "c24b8497",
    "name": "上飯島",
    "lat": 39.779336,
    "lon": 140.06847,
    "lines": [
      "JR奥羽本線(新庄～青森)"
    ]
  },
  {
    "code": "0fec6d12",
    "name": "上飯田",
    "lat": 35.203845,
    "lon": 136.929642,
    "lines": [
      "名古屋市営地下鉄上飯田線",
      "名鉄小牧線"
    ]
  },
  {
    "code": "2d1d3d7e",
    "name": "上鳥羽口",
    "lat": 34.965135,
    "lon": 135.752625,
    "lines": [
      "近鉄京都線"
    ]
  },
  {
    "code": "8c6ba738",
    "name": "上鹿折",
    "lat": 38.960661,
    "lon": 141.568232,
    "lines": [
      "ドラゴンレール大船渡線"
    ]
  },
  {
    "code": "0d0f62bc",
    "name": "上麻生",
    "lat": 35.541293,
    "lon": 137.11863,
    "lines": [
      "JR高山本線"
    ]
  },
  {
    "code": "749e82e8",
    "name": "下ノ江",
    "lat": 33.158653,
    "lon": 131.811159,
    "lines": [
      "JR日豊本線(門司港～佐伯)"
    ]
  },
  {
    "code": "cb0639e3",
    "name": "下丸子",
    "lat": 35.571397,
    "lon": 139.685576,
    "lines": [
      "東急多摩川線"
    ]
  },
  {
    "code": "14b7532d",
    "name": "下久野",
    "lat": 35.264811,
    "lon": 132.991949,
    "lines": [
      "JR木次線"
    ]
  },
  {
    "code": "1c111612",
    "name": "下之郷",
    "lat": 36.363249,
    "lon": 138.217227,
    "lines": [
      "上田電鉄別所線"
    ]
  },
  {
    "code": "40fcba76",
    "name": "下井草",
    "lat": 35.723852,
    "lon": 139.624688,
    "lines": [
      "西武新宿線"
    ]
  },
  {
    "code": "205a6a22",
    "name": "下井阪",
    "lat": 34.262003,
    "lon": 135.340256,
    "lines": [
      "JR和歌山線"
    ]
  },
  {
    "code": "2bb6cb2a",
    "name": "下仁田",
    "lat": 36.210484,
    "lon": 138.786681,
    "lines": [
      "上信電鉄"
    ]
  },
  {
    "code": "6e93afed",
    "name": "下今市",
    "lat": 36.72563,
    "lon": 139.692666,
    "lines": [
      "東武日光線",
      "東武鬼怒川線"
    ]
  },
  {
    "code": "8eac94f3",
    "name": "下伊田",
    "lat": 33.651965,
    "lon": 130.807016,
    "lines": [
      "伊田線"
    ]
  },
  {
    "code": "f4f5a70a",
    "name": "下兵庫",
    "lat": 34.322613,
    "lon": 135.634741,
    "lines": [
      "JR和歌山線"
    ]
  },
  {
    "code": "276d8868",
    "name": "下兵庫こうふく",
    "lat": 36.170129,
    "lon": 136.202507,
    "lines": [
      "えちぜん鉄道三国芦原線"
    ]
  },
  {
    "code": "67ed4ef5",
    "name": "下切",
    "lat": 35.393777,
    "lon": 137.063734,
    "lines": [
      "JR太多線"
    ]
  },
  {
    "code": "e96f85b0",
    "name": "下北",
    "lat": 41.28288,
    "lon": 141.18989,
    "lines": [
      "はまなすベイライン大湊線"
    ]
  },
  {
    "code": "71659d3c",
    "name": "下北条",
    "lat": 35.481915,
    "lon": 133.809109,
    "lines": [
      "JR山陰本線(豊岡～米子)"
    ]
  },
  {
    "code": "3b3f4269",
    "name": "下北沢",
    "lat": 35.661597,
    "lon": 139.667213,
    "lines": [
      "京王井の頭線",
      "小田急線"
    ]
  },
  {
    "code": "96e0dd6b",
    "name": "下古沢",
    "lat": 34.266497,
    "lon": 135.553207,
    "lines": [
      "南海高野線"
    ]
  },
  {
    "code": "aaa5b7b5",
    "name": "下吉田",
    "lat": 35.497909,
    "lon": 138.80366,
    "lines": [
      "富士急行線"
    ]
  },
  {
    "code": "99883fc5",
    "name": "下呂",
    "lat": 35.805345,
    "lon": 137.239778,
    "lines": [
      "JR高山本線"
    ]
  },
  {
    "code": "bef9126e",
    "name": "下和知",
    "lat": 34.797668,
    "lon": 132.925336,
    "lines": [
      "JR芸備線"
    ]
  },
  {
    "code": "96703e11",
    "name": "下唯野",
    "lat": 35.974208,
    "lon": 136.56027,
    "lines": [
      "九頭竜線"
    ]
  },
  {
    "code": "dfd882da",
    "name": "下土狩",
    "lat": 35.128379,
    "lon": 138.895126,
    "lines": [
      "JR御殿場線"
    ]
  },
  {
    "code": "31cf21da",
    "name": "下地",
    "lat": 34.780939,
    "lon": 137.370612,
    "lines": [
      "JR飯田線(豊橋～天竜峡)"
    ]
  },
  {
    "code": "e7fc2c99",
    "name": "下士別",
    "lat": 44.210583,
    "lon": 142.396405,
    "lines": [
      "JR宗谷本線"
    ]
  },
  {
    "code": "92b1aae2",
    "name": "下夜久野",
    "lat": 35.319893,
    "lon": 134.998868,
    "lines": [
      "JR山陰本線(園部～豊岡)"
    ]
  },
  {
    "code": "4d04def0",
    "name": "下大利",
    "lat": 33.522431,
    "lon": 130.489248,
    "lines": [
      "西鉄天神大牟田線"
    ]
  },
  {
    "code": "d746de8a",
    "name": "下天津",
    "lat": 35.359587,
    "lon": 135.111702,
    "lines": [
      "宮福線"
    ]
  },
  {
    "code": "2b4dc7c6",
    "name": "下奥井",
    "lat": 36.711311,
    "lon": 137.224478,
    "lines": [
      "富山港線"
    ]
  },
  {
    "code": "2ed8b1af",
    "name": "下妻",
    "lat": 36.182325,
    "lon": 139.964461,
    "lines": [
      "関東鉄道常総線"
    ]
  },
  {
    "code": "76b424e0",
    "name": "下宇和",
    "lat": 33.349786,
    "lon": 132.531172,
    "lines": [
      "JR予讃・内子線"
    ]
  },
  {
    "code": "c8a0f19d",
    "name": "下小代",
    "lat": 36.651303,
    "lon": 139.713849,
    "lines": [
      "東武日光線"
    ]
  },
  {
    "code": "245a19c6",
    "name": "下小川",
    "lat": 36.668975,
    "lon": 140.387021,
    "lines": [
      "JR水郡線"
    ]
  },
  {
    "code": "44addb92",
    "name": "下小田井",
    "lat": 35.201878,
    "lon": 136.870638,
    "lines": [
      "名鉄犬山線"
    ]
  },
  {
    "code": "45167a31",
    "name": "下山",
    "lat": 34.3352635,
    "lon": 134.6855215,
    "lines": [
      "JR山陰本線(園部～豊岡)",
      "ごめん・なはり線"
    ]
  },
  {
    "code": "ec031543",
    "name": "下山口",
    "lat": 35.77941,
    "lon": 139.441097,
    "lines": [
      "西武狭山線"
    ]
  },
  {
    "code": "587d8944",
    "name": "下山村",
    "lat": 35.50426,
    "lon": 137.83959,
    "lines": [
      "JR飯田線(天竜峡～辰野)"
    ]
  },
  {
    "code": "8a94b680",
    "name": "下山門",
    "lat": 33.58193,
    "lon": 130.308217,
    "lines": [
      "JR筑肥線(姪浜～西唐津)"
    ]
  },
  {
    "code": "c3816488",
    "name": "下島",
    "lat": 36.0094185,
    "lon": 137.905948,
    "lines": [
      "JR飯田線(天竜峡～辰野)",
      "上高地線"
    ]
  },
  {
    "code": "fec54f46",
    "name": "下川合",
    "lat": 35.069321,
    "lon": 137.786422,
    "lines": [
      "JR飯田線(豊橋～天竜峡)"
    ]
  },
  {
    "code": "a1eed3da",
    "name": "下川沿",
    "lat": 40.276408,
    "lon": 140.496625,
    "lines": [
      "JR奥羽本線(新庄～青森)"
    ]
  },
  {
    "code": "0fb57bc5",
    "name": "下川辺",
    "lat": 34.554311,
    "lon": 133.205282,
    "lines": [
      "JR福塩線"
    ]
  },
  {
    "code": "355c4b7e",
    "name": "下市",
    "lat": 35.518821,
    "lon": 133.566302,
    "lines": [
      "JR山陰本線(豊岡～米子)"
    ]
  },
  {
    "code": "14826156",
    "name": "下市口",
    "lat": 34.383998,
    "lon": 135.786888,
    "lines": [
      "近鉄吉野線"
    ]
  },
  {
    "code": "7b8c60bb",
    "name": "下市田",
    "lat": 35.544165,
    "lon": 137.87641,
    "lines": [
      "JR飯田線(天竜峡～辰野)"
    ]
  },
  {
    "code": "30bc788f",
    "name": "下平",
    "lat": 35.572597,
    "lon": 137.895922,
    "lines": [
      "JR飯田線(天竜峡～辰野)"
    ]
  },
  {
    "code": "6abb9b8c",
    "name": "下庄",
    "lat": 34.81423,
    "lon": 136.479628,
    "lines": [
      "JR紀勢本線"
    ]
  },
  {
    "code": "f11c3489",
    "name": "下府",
    "lat": 34.927322,
    "lon": 132.110541,
    "lines": [
      "JR山陰本線(米子～益田)"
    ]
  },
  {
    "code": "1faa3e4a",
    "name": "下徳富",
    "lat": 43.50271,
    "lon": 141.855574,
    "lines": [
      "JR札沼線"
    ]
  },
  {
    "code": "e56782c2",
    "name": "下志比",
    "lat": 36.090674,
    "lon": 136.336346,
    "lines": [
      "えちぜん鉄道勝山永平寺線"
    ]
  },
  {
    "code": "1f14c1bb",
    "name": "下新",
    "lat": 36.22513,
    "lon": 137.922564,
    "lines": [
      "上高地線"
    ]
  },
  {
    "code": "62a59e23",
    "name": "下新庄",
    "lat": 34.746474,
    "lon": 135.519893,
    "lines": [
      "阪急千里線"
    ]
  },
  {
    "code": "647ca550",
    "name": "下新田",
    "lat": 36.407776,
    "lon": 139.315086,
    "lines": [
      "わたらせ渓谷線"
    ]
  },
  {
    "code": "22314ec3",
    "name": "下曽我",
    "lat": 35.303554,
    "lon": 139.183395,
    "lines": [
      "JR御殿場線"
    ]
  },
  {
    "code": "59061dd3",
    "name": "下曽根",
    "lat": 33.832522,
    "lon": 130.934829,
    "lines": [
      "JR日豊本線(門司港～佐伯)"
    ]
  },
  {
    "code": "6dfd2aec",
    "name": "下条",
    "lat": 37.198324,
    "lon": 138.779989,
    "lines": [
      "JR飯山線"
    ]
  },
  {
    "code": "26290fab",
    "name": "下松",
    "lat": 34.2331385,
    "lon": 133.63241,
    "lines": [
      "JR山陽本線(岩国～門司)",
      "阪和線(天王寺～和歌山)"
    ]
  },
  {
    "code": "d38f7f54",
    "name": "下板橋",
    "lat": 35.745721,
    "lon": 139.714785,
    "lines": [
      "東武東上線"
    ]
  },
  {
    "code": "95b38226",
    "name": "下段",
    "lat": 36.647899,
    "lon": 137.317735,
    "lines": [
      "富山地鉄立山線"
    ]
  },
  {
    "code": "3a71183d",
    "name": "下永谷",
    "lat": 35.402677,
    "lon": 139.559389,
    "lines": [
      "ブルーライン"
    ]
  },
  {
    "code": "9cac43ae",
    "name": "下油井",
    "lat": 35.633214,
    "lon": 137.183137,
    "lines": [
      "JR高山本線"
    ]
  },
  {
    "code": "6510ba47",
    "name": "下沼",
    "lat": 45.037146,
    "lon": 141.758218,
    "lines": [
      "JR宗谷本線"
    ]
  },
  {
    "code": "31aca829",
    "name": "下泉",
    "lat": 35.022064,
    "lon": 138.090078,
    "lines": [
      "大井川鐵道大井川本線"
    ]
  },
  {
    "code": "b1802be9",
    "name": "下津",
    "lat": 34.108854,
    "lon": 135.145524,
    "lines": [
      "きのくに線"
    ]
  },
  {
    "code": "edc5547f",
    "name": "下浜",
    "lat": 39.619678,
    "lon": 140.064567,
    "lines": [
      "JR羽越本線"
    ]
  },
  {
    "code": "ed135dd2",
    "name": "下浦",
    "lat": 34.067669,
    "lon": 134.421011,
    "lines": [
      "よしの川ブルーライン"
    ]
  },
  {
    "code": "7b89477b",
    "name": "下深川",
    "lat": 34.488683,
    "lon": 132.524702,
    "lines": [
      "JR芸備線"
    ]
  },
  {
    "code": "1d13a6da",
    "name": "下深谷",
    "lat": 35.096179,
    "lon": 136.661818,
    "lines": [
      "近鉄養老線",
      "養老鉄道養老線"
    ]
  },
  {
    "code": "faf6543b",
    "name": "下湯沢",
    "lat": 39.197196,
    "lon": 140.50249,
    "lines": [
      "JR奥羽本線(新庄～青森)"
    ]
  },
  {
    "code": "e1f062e2",
    "name": "下溝",
    "lat": 35.518516,
    "lon": 139.380428,
    "lines": [
      "JR相模線"
    ]
  },
  {
    "code": "bc577a8b",
    "name": "下滝",
    "lat": 35.08791,
    "lon": 135.094268,
    "lines": [
      "福知山線(篠山口～福知山)"
    ]
  },
  {
    "code": "550f5de1",
    "name": "下灘",
    "lat": 33.655109,
    "lon": 132.589219,
    "lines": [
      "JR予讃・内子線"
    ]
  },
  {
    "code": "8be4fbd0",
    "name": "下狛",
    "lat": 34.780579,
    "lon": 135.788574,
    "lines": [
      "学研都市線"
    ]
  },
  {
    "code": "25f30d2f",
    "name": "下田",
    "lat": 40.591958,
    "lon": 141.407965,
    "lines": [
      "青い森鉄道線"
    ]
  },
  {
    "code": "4ee9bb20",
    "name": "下白滝",
    "lat": 43.944553,
    "lon": 143.276088,
    "lines": [
      "JR石北本線"
    ]
  },
  {
    "code": "d3fda78b",
    "name": "下石野",
    "lat": 34.796847,
    "lon": 134.928097,
    "lines": [
      "三木鉄道三木線"
    ]
  },
  {
    "code": "cd73f960",
    "name": "下祇園",
    "lat": 34.439354,
    "lon": 132.462328,
    "lines": [
      "JR可部線"
    ]
  },
  {
    "code": "44a97efb",
    "name": "下神明",
    "lat": 35.608704,
    "lon": 139.726256,
    "lines": [
      "東急大井町線"
    ]
  },
  {
    "code": "6ad3ca7e",
    "name": "下立",
    "lat": 36.857707,
    "lon": 137.541396,
    "lines": [
      "富山地鉄本線"
    ]
  },
  {
    "code": "af0bd4fd",
    "name": "下立口",
    "lat": 36.859571,
    "lon": 137.532908,
    "lines": [
      "富山地鉄本線"
    ]
  },
  {
    "code": "f116c6ab",
    "name": "下総中山",
    "lat": 35.714276,
    "lon": 139.943092,
    "lines": [
      "JR中央・総武線"
    ]
  },
  {
    "code": "bee7ac8d",
    "name": "下総松崎",
    "lat": 35.807806,
    "lon": 140.27749,
    "lines": [
      "JR成田線"
    ]
  },
  {
    "code": "303747ad",
    "name": "下総橘",
    "lat": 35.818673,
    "lon": 140.702273,
    "lines": [
      "JR成田線"
    ]
  },
  {
    "code": "20b56012",
    "name": "下総神崎",
    "lat": 35.8948,
    "lon": 140.410657,
    "lines": [
      "JR成田線"
    ]
  },
  {
    "code": "fd1d234b",
    "name": "下総豊里",
    "lat": 35.792899,
    "lon": 140.721011,
    "lines": [
      "JR成田線"
    ]
  },
  {
    "code": "6af946dc",
    "name": "下船渡",
    "lat": 39.038362,
    "lon": 141.721222,
    "lines": [
      "ドラゴンレール大船渡線"
    ]
  },
  {
    "code": "27bbdfd4",
    "name": "下菅谷",
    "lat": 36.435394,
    "lon": 140.494021,
    "lines": [
      "JR水郡線"
    ]
  },
  {
    "code": "0229c1cf",
    "name": "下落合",
    "lat": 35.715846,
    "lon": 139.695391,
    "lines": [
      "西武新宿線"
    ]
  },
  {
    "code": "439b14c8",
    "name": "下諏訪",
    "lat": 36.071948,
    "lon": 138.084953,
    "lines": [
      "JR中央本線(東京～塩尻)"
    ]
  },
  {
    "code": "47ee312e",
    "name": "下赤塚",
    "lat": 35.770558,
    "lon": 139.644482,
    "lines": [
      "東武東上線"
    ]
  },
  {
    "code": "49f647d5",
    "name": "下郡",
    "lat": 35.355018,
    "lon": 140.055372,
    "lines": [
      "JR久留里線"
    ]
  },
  {
    "code": "6a413be3",
    "name": "下部温泉",
    "lat": 35.425751,
    "lon": 138.472359,
    "lines": [
      "JR身延線"
    ]
  },
  {
    "code": "857c39cd",
    "name": "下里",
    "lat": 33.582115,
    "lon": 135.9221,
    "lines": [
      "きのくに線"
    ]
  },
  {
    "code": "a901b543",
    "name": "下野代",
    "lat": 35.115899,
    "lon": 136.647235,
    "lines": [
      "近鉄養老線",
      "養老鉄道養老線"
    ]
  },
  {
    "code": "eaea241e",
    "name": "下野大沢",
    "lat": 36.686427,
    "lon": 139.732367,
    "lines": [
      "JR日光線"
    ]
  },
  {
    "code": "38d71177",
    "name": "下野宮",
    "lat": 36.815744,
    "lon": 140.375282,
    "lines": [
      "JR水郡線"
    ]
  },
  {
    "code": "42a0b20a",
    "name": "下野花岡",
    "lat": 36.649965,
    "lon": 140.008606,
    "lines": [
      "JR烏山線"
    ]
  },
  {
    "code": "5675dda4",
    "name": "下金山",
    "lat": 43.197328,
    "lon": 142.415402,
    "lines": [
      "JR根室本線(滝川～富良野)"
    ]
  },
  {
    "code": "f7fe44a7",
    "name": "下関",
    "lat": 33.950306,
    "lon": 130.923038,
    "lines": [
      "JR山陰本線(益田～下関)",
      "JR山陽本線(岩国～門司)",
      "JR鹿児島本線(下関・門司港～博多)"
    ]
  },
  {
    "code": "d77a6dc3",
    "name": "下飯田",
    "lat": 35.403503,
    "lon": 139.483195,
    "lines": [
      "ブルーライン"
    ]
  },
  {
    "code": "0ede813b",
    "name": "下館",
    "lat": 36.3041436667,
    "lon": 139.9785033333,
    "lines": [
      "JR水戸線",
      "真岡鐵道真岡線",
      "関東鉄道常総線"
    ]
  },
  {
    "code": "ad750826",
    "name": "下館二高前",
    "lat": 36.319137,
    "lon": 139.972193,
    "lines": [
      "真岡鐵道真岡線"
    ]
  },
  {
    "code": "9362a9eb",
    "name": "下馬",
    "lat": 38.305833,
    "lon": 141.014965,
    "lines": [
      "JR仙石線"
    ]
  },
  {
    "code": "e489d4cb",
    "name": "下高井戸",
    "lat": 35.66615,
    "lon": 139.641372,
    "lines": [
      "京王線",
      "東急世田谷線"
    ]
  },
  {
    "code": "767f377c",
    "name": "下鴨生",
    "lat": 33.614811,
    "lon": 130.728209,
    "lines": [
      "JR後藤寺線"
    ]
  },
  {
    "code": "10ad21ef",
    "name": "下麻生",
    "lat": 35.514973,
    "lon": 137.087157,
    "lines": [
      "JR高山本線"
    ]
  },
  {
    "code": "31082bd2",
    "name": "不二越",
    "lat": 36.687848,
    "lon": 137.232453,
    "lines": [
      "富山地鉄不二越・上滝線"
    ]
  },
  {
    "code": "b2edcef8",
    "name": "不動の沢",
    "lat": 38.898519,
    "lon": 141.56236,
    "lines": [
      "JR気仙沼線"
    ]
  },
  {
    "code": "5e15316d",
    "name": "不動前",
    "lat": 35.626526,
    "lon": 139.71469,
    "lines": [
      "東急目黒線"
    ]
  },
  {
    "code": "c7f5318f",
    "name": "不動院前",
    "lat": 34.426921,
    "lon": 132.469306,
    "lines": [
      "アストラムライン"
    ]
  },
  {
    "code": "f0c17567",
    "name": "不破一色",
    "lat": 35.332959,
    "lon": 136.721897,
    "lines": [
      "名鉄竹鼻線"
    ]
  },
  {
    "code": "ebfcb992",
    "name": "与謝野",
    "lat": 35.543516,
    "lon": 135.126469,
    "lines": [
      "宮豊線"
    ]
  },
  {
    "code": "77c198ea",
    "name": "与野",
    "lat": 35.884393,
    "lon": 139.639085,
    "lines": [
      "JR京浜東北線"
    ]
  },
  {
    "code": "23f4661c",
    "name": "与野本町",
    "lat": 35.880968,
    "lon": 139.626075,
    "lines": [
      "JR埼京線"
    ]
  },
  {
    "code": "046a6465",
    "name": "世田谷",
    "lat": 35.643564,
    "lon": 139.650945,
    "lines": [
      "東急世田谷線"
    ]
  },
  {
    "code": "d175e0c7",
    "name": "世田谷代田",
    "lat": 35.65834,
    "lon": 139.661557,
    "lines": [
      "小田急線"
    ]
  },
  {
    "code": "9b8a86e9",
    "name": "世良田",
    "lat": 36.272931,
    "lon": 139.282038,
    "lines": [
      "東武伊勢崎線"
    ]
  },
  {
    "code": "e06b34e6",
    "name": "両国",
    "lat": 35.6963355,
    "lon": 139.7953775,
    "lines": [
      "JR中央・総武線",
      "都営大江戸線"
    ]
  },
  {
    "code": "49a71e4a",
    "name": "両石",
    "lat": 39.308062,
    "lon": 141.889112,
    "lines": [
      "JR山田線",
      "三陸鉄道リアス線"
    ]
  },
  {
    "code": "f015d266",
    "name": "並木中央",
    "lat": 35.365505,
    "lon": 139.642945,
    "lines": [
      "金沢シーサイドライン"
    ]
  },
  {
    "code": "1b823446",
    "name": "並木北",
    "lat": 35.372015,
    "lon": 139.642743,
    "lines": [
      "金沢シーサイドライン"
    ]
  },
  {
    "code": "b0ffb1a2",
    "name": "並河",
    "lat": 35.032479,
    "lon": 135.554959,
    "lines": [
      "嵯峨野線"
    ]
  },
  {
    "code": "d22bea55",
    "name": "中の島",
    "lat": 43.037727,
    "lon": 141.360758,
    "lines": [
      "札幌市営地下鉄南北線"
    ]
  },
  {
    "code": "1c1a889e",
    "name": "中ふ頭",
    "lat": 34.634091,
    "lon": 135.417416,
    "lines": [
      "大阪メトロ南港ポートタウン線"
    ]
  },
  {
    "code": "ca4fcb4b",
    "name": "中ノ庄",
    "lat": 34.990857,
    "lon": 135.891516,
    "lines": [
      "京阪石山坂本線"
    ]
  },
  {
    "code": "7a59fa04",
    "name": "中ノ沢",
    "lat": 42.477928,
    "lon": 140.346077,
    "lines": [
      "JR函館本線(函館～長万部)"
    ]
  },
  {
    "code": "3b75406a",
    "name": "中三依温泉",
    "lat": 36.985843,
    "lon": 139.69614,
    "lines": [
      "ほっとスパ・ライン"
    ]
  },
  {
    "code": "d2e31802",
    "name": "中三田",
    "lat": 34.513604,
    "lon": 132.609329,
    "lines": [
      "JR芸備線"
    ]
  },
  {
    "code": "152cbb79",
    "name": "中之島",
    "lat": 34.691504,
    "lon": 135.487373,
    "lines": [
      "京阪中之島線"
    ]
  },
  {
    "code": "0eee56dc",
    "name": "中之条",
    "lat": 36.585541,
    "lon": 138.850908,
    "lines": [
      "JR吾妻線"
    ]
  },
  {
    "code": "4124c064",
    "name": "中之郷",
    "lat": 34.479577,
    "lon": 136.845542,
    "lines": [
      "近鉄志摩線"
    ]
  },
  {
    "code": "e321be7b",
    "name": "中井",
    "lat": 35.7145705,
    "lon": 139.6866615,
    "lines": [
      "西武新宿線",
      "都営大江戸線"
    ]
  },
  {
    "code": "f19af03e",
    "name": "中井侍",
    "lat": 35.235913,
    "lon": 137.834912,
    "lines": [
      "JR飯田線(豊橋～天竜峡)"
    ]
  },
  {
    "code": "24fd8e75",
    "name": "中京競馬場前",
    "lat": 35.061302,
    "lon": 136.98158,
    "lines": [
      "名鉄名古屋本線"
    ]
  },
  {
    "code": "6a97931c",
    "name": "中伏木",
    "lat": 36.788224,
    "lon": 137.061655,
    "lines": [
      "万葉線"
    ]
  },
  {
    "code": "0374f16d",
    "name": "中佐世保",
    "lat": 33.172297,
    "lon": 129.722668,
    "lines": [
      "西九州線(伊万里～佐世保)"
    ]
  },
  {
    "code": "2f6d38cd",
    "name": "中佐都",
    "lat": 36.280856,
    "lon": 138.453549,
    "lines": [
      "小海線"
    ]
  },
  {
    "code": "a2eb593c",
    "name": "中八木",
    "lat": 34.670832,
    "lon": 134.936128,
    "lines": [
      "山陽電鉄本線"
    ]
  },
  {
    "code": "e14296e0",
    "name": "中公園",
    "lat": 34.673124,
    "lon": 135.207483,
    "lines": [
      "ポートライナー"
    ]
  },
  {
    "code": "abbc1615",
    "name": "中判田",
    "lat": 33.164564,
    "lon": 131.638735,
    "lines": [
      "阿蘇高原線"
    ]
  },
  {
    "code": "39320efa",
    "name": "中加積",
    "lat": 36.735309,
    "lon": 137.350947,
    "lines": [
      "富山地鉄本線"
    ]
  },
  {
    "code": "c94b4b92",
    "name": "中原",
    "lat": 33.346241,
    "lon": 130.440046,
    "lines": [
      "JR長崎本線(鳥栖～長崎)"
    ]
  },
  {
    "code": "d3a33d5a",
    "name": "中名",
    "lat": 31.393591,
    "lon": 130.535086,
    "lines": [
      "JR指宿枕崎線"
    ]
  },
  {
    "code": "e7596406",
    "name": "中国勝山",
    "lat": 35.080556,
    "lon": 133.694735,
    "lines": [
      "JR姫新線(佐用～新見)"
    ]
  },
  {
    "code": "68cc143f",
    "name": "中土",
    "lat": 36.80558,
    "lon": 137.907879,
    "lines": [
      "北アルプス線"
    ]
  },
  {
    "code": "e50913d1",
    "name": "中埠頭",
    "lat": 34.669266,
    "lon": 135.217096,
    "lines": [
      "ポートライナー"
    ]
  },
  {
    "code": "09092e5e",
    "name": "中塩田",
    "lat": 36.363212,
    "lon": 138.204728,
    "lines": [
      "上田電鉄別所線"
    ]
  },
  {
    "code": "4e044f3b",
    "name": "中多久",
    "lat": 33.28336,
    "lon": 130.112308,
    "lines": [
      "JR唐津線"
    ]
  },
  {
    "code": "032c4208",
    "name": "中央前橋",
    "lat": 36.390915,
    "lon": 139.07531,
    "lines": [
      "上毛電気鉄道上毛線"
    ]
  },
  {
    "code": "ae363503",
    "name": "中央区役所前",
    "lat": 43.057823,
    "lon": 141.34224,
    "lines": [
      "札幌市電"
    ]
  },
  {
    "code": "9833c8af",
    "name": "中央図書館前",
    "lat": 43.030455,
    "lon": 141.340227,
    "lines": [
      "札幌市電"
    ]
  },
  {
    "code": "aaa2a6fe",
    "name": "中央大学・明星大学",
    "lat": 35.64197,
    "lon": 139.408672,
    "lines": [
      "多摩モノレール"
    ]
  },
  {
    "code": "0e9f0630",
    "name": "中央市場前",
    "lat": 34.666199,
    "lon": 135.175866,
    "lines": [
      "夢かもめ"
    ]
  },
  {
    "code": "7868fc02",
    "name": "中央弘前",
    "lat": 40.599144,
    "lon": 140.472203,
    "lines": [
      "弘南鉄道大鰐線"
    ]
  },
  {
    "code": "527453de",
    "name": "中央林間",
    "lat": 35.5078685,
    "lon": 139.44452,
    "lines": [
      "小田急江ノ島線",
      "東急田園都市線"
    ]
  },
  {
    "code": "6d29d96f",
    "name": "中央病院前",
    "lat": 41.787121,
    "lon": 140.751021,
    "lines": [
      "函館市電２系統",
      "函館市電５系統"
    ]
  },
  {
    "code": "c61c6aab",
    "name": "中妻",
    "lat": 36.047291,
    "lon": 139.990714,
    "lines": [
      "関東鉄道常総線"
    ]
  },
  {
    "code": "b52e6537",
    "name": "中学校",
    "lat": 35.740123,
    "lon": 140.14841,
    "lines": [
      "ユーカリが丘線"
    ]
  },
  {
    "code": "46a1ca11",
    "name": "中富良野",
    "lat": 43.405704,
    "lon": 142.420812,
    "lines": [
      "JR富良野線"
    ]
  },
  {
    "code": "77a66c75",
    "name": "中小国",
    "lat": 41.051702,
    "lon": 140.596798,
    "lines": [
      "JR津軽線",
      "JR海峡線"
    ]
  },
  {
    "code": "14ae7f7d",
    "name": "中小屋",
    "lat": 43.306846,
    "lon": 141.602341,
    "lines": [
      "JR札沼線"
    ]
  },
  {
    "code": "53972250",
    "name": "中小田井",
    "lat": 35.214647,
    "lon": 136.876772,
    "lines": [
      "名鉄犬山線"
    ]
  },
  {
    "code": "6acbdebb",
    "name": "中山",
    "lat": 34.8605436667,
    "lon": 137.5108853333,
    "lines": [
      "JR横浜線",
      "グリーンライン",
      "伊野線"
    ]
  },